freq,longitude,latitude,story_ids,story_place
2,9.74794645,57.16692875,"22900 22949","22900=>Åby (3)<br>22949=>Åby (3)"
3,9.12743054,55.13081541,"29245 29255 29256","29245=>Agerskov (12)<br>29255=>Agerskov (12)<br>29256=>Agerskov (12)"
2,8.24072529,56.77887529,"22975 29123","22975=>Agger (14)<br>29123=>Agger (14)"
1,8.63217387,55.46388899,29090,"29090=>Allerup (33)"
2,10.28886161,56.75487617,"23023 29055","23023=>Als (38)<br>29055=>Als (38)"
3,10.19194129,56.76065659,"29055 29290","29055=>Skelum (2753)<br>29055=>Veddum (2754)<br>29290=>Skelum (2753)"
2,9.8414759,54.96362819,"29226 29254","29226=>Als (39)<br>29254=>Als (39)"
3,12.62629466,55.62123328,"29238 29261 29273","29238=>Amager (47)<br>29261=>Amager (47)<br>29273=>Amager (47)"
1,9.23692909,55.48401691,28928,"28928=>Andst (53)"
1,8.66601797,55.57442035,29082,"29082=>Årre (57)"
1,10.00194886,55.89344365,22752,"22752=>Ås (66)"
1,11.4970398,55.81491731,22795,"22795=>Asnæs (71)"
2,9.90594911,55.480346,"22815 22816","22815=>Asperup (74)<br>22816=>Båring (115)"
1,10.12307693,56.44894159,22762,"22762=>Assentoft (79)"
1,10.31384379,57.48321395,28959,"28959=>Åsted (80)"
2,10.88655,56.428273,"22807 22854","22807=>Åstrup (101)<br>22854=>Åstrup (101)"
1,10.19922035,57.5422646,23050,"23050=>Bindslev (127)"
1,8.73114513,56.8682726,22892,"22892=>Bjærgby (132)"
1,8.15001308,55.96646108,22837,"22837=>Bjærggård (142)"
1,12.44955107,54.99609429,22858,"22858=>Borre (166)"
1,10.37665808,56.33447364,22927,"22927=>Borup (175)"
2,9.507208,56.363111,"22725 22744","22725=>Brandstrup (187)<br>22744=>Brandstrup (187)"
1,11.700954,54.715152,29200,"29200=>Brejning (197)"
2,10.22994745,56.60811234,"23141 22739","23141=>Demstrup (226)<br>22739=>Råby (917)"
14,10.18655208,56.57922546,"23141 22739 22788 22789 22796 22798 22803 22805 22806 22830 22906 22923 22958 23018","23141=>Tørring (1217)<br>22739=>Øster-Tørslev (3270)<br>22788=>Tørring (1217)<br>22789=>Tørring (1217)<br>22796=>Tørring (1217)<br>22798=>Tørring (1217)<br>22803=>Tørring (1217)<br>22805=>Tørring (1217)<br>22806=>Tørring (1217)<br>22830=>Tørring (1217)<br>22906=>Tørring (1217)<br>22923=>Tørring (1217)<br>22958=>Tørring (1217)<br>23018=>Tørring (1217)"
1,8.80624546,55.11730256,22859,"22859=>Døstrup (231)"
1,10.70248201,56.22370281,29288,"29288=>Dråby (234)"
8,10.28306119,56.4446316,"22726 22794 22817 22829 22921 22947 22994","22726=>Drammelstrup (235)<br>22726=>Favsing (298)<br>22794=>Favsing (298)<br>22817=>Favsing (298)<br>22829=>Favsing (298)<br>22921=>Favsing (298)<br>22947=>Favsing (298)<br>22994=>Favsing (298)"
1,11.87018356,55.14565068,28940,"28940=>Fårup (292)"
1,8.78632945,56.59122572,28940,"28940=>Hostrup (531)"
2,10.069656,56.2089,"22875 29161","22875=>Fårup (296)<br>29161=>Fårup (296)"
1,9.99211737,56.4052325,22875,"22875=>Værum (3316)"
1,9.940009,56.625619,28882,"28882=>Fjelsted (308)"
1,10.15333015,56.64244951,28882,"28882=>Kastbjærg (605)"
2,9.9843203,56.65025328,"28882 22990","28882=>Mariager (768)<br>22990=>Mariager (768)"
1,8.79464452,56.88904662,23101,"23101=>Flade (311)"
2,8.9366792,55.45078486,"28986 29020","28986=>Fovling (315)<br>29020=>Fovling (315)"
3,9.11742998,55.5219207,"22761 22944 23123","22761=>Gammelby (335)<br>22944=>Gammelby (335)<br>23123=>Læborg (4339)"
1,9.70370454,55.63840667,29239,"29239=>Gårslev (339)"
6,8.48301381,55.6233681,"22931 22952 23000 29117 29211 29230","22931=>Gjellerup (349)<br>22952=>Gjellerup (349)<br>23000=>Gjellerup (349)<br>29117=>Gjellerup (349)<br>29211=>Gjellerup (349)<br>29230=>Varde (1293)"
11,8.49162946,55.80164939,"22952 29230 22963 22742 22791 22889 22894 22930 22983 22993 23020","22952=>Lyne (4193)<br>29230=>Lyne (4193)<br>22963=>Lyne (4193)<br>22742=>Lyne (4193)<br>22791=>Lyne (4193)<br>22889=>Lyne (4193)<br>22894=>Lyne (4193)<br>22930=>Lyne (4193)<br>22983=>Lyne (4193)<br>22993=>Lyne (4193)<br>23020=>Lyne (4193)"
2,10.89117652,56.40594271,"23124 28919","23124=>Grenå (364)<br>28919=>Grenå (364)"
2,8.92627143,55.75784153,"29095 28931","29095=>Grindsted (366)<br>28931=>Udtoft (4283)"
1,10.010862,56.940995,22770,"22770=>Gunderup (376)"
1,9.88182547,56.11098135,22928,"22928=>Hårby (401)"
1,9.99088175,56.05949507,22928,"22928=>Stilling (3573)"
1,9.76258507,55.85186739,22786,"22786=>Hatting (418)"
2,9.73267011,56.02420768,22840,"22840=>Hem (445)<br>22840=>Dørup (3658)"
2,8.73479715,57.01500974,"22735 22995","22735=>Hillerslev (459)<br>22995=>Hillerslev (459)"
1,9.54388431,56.3380454,29098,"29098=>Højbjærg (478)"
2,9.43240349,56.25517925,"29098 29164","29098=>Vinderslev (3184)<br>29164=>Vinderslev (3184)"
1,8.700485,54.963031,29024,"29024=>Højer egn (484)"
1,8.99217015,55.22956772,29097,"29097=>Højrup (491)"
7,10.30030868,56.55153665,"29103 28948 28978 29034 29104 29113","29103=>Holbæk (496)<br>29103=>Holbækgård (3343)<br>28948=>Kare (3340)<br>28978=>Kare (3340)<br>29034=>Kare (3340)<br>29104=>Kare (3340)<br>29113=>Kare (3340)"
1,11.706104,55.737404,22980,"22980=>Hørby (507)"
8,9.65366138,55.88982838,"22755 22778 22800 22801 22809 22823 23088 22973","22755=>Hornum (522)<br>22778=>Hornum (522)<br>22800=>Hornum (522)<br>22801=>Hornum (522)<br>22809=>Hornum (522)<br>22823=>Hornum (522)<br>23088=>Hornum (522)<br>22973=>Rask mølle (3747)"
1,9.86197942,55.85797729,29071,"29071=>Horsens egn (523)"
1,9.87059793,56.34485987,29067,"29067=>Hovlbjærg (541)"
1,9.872761,56.344184,29067,"29067=>Hovlbjærg (542)"
1,10.76863181,56.28251394,28943,"28943=>Hyllested (569)"
1,12.16277647,55.00013266,22913,"22913=>Kalvhave (591)"
1,10.26879621,56.35776556,28980,"28980=>Karlby (596)"
1,10.86238959,56.47355037,22833,"22833=>Karlby (597)"
1,10.06132516,56.60052834,28881,"28881=>Kjærby (620)"
4,10.03578012,56.53842593,"28881 28893 28976 29012","28881=>Spentrup (3288)<br>28893=>Spentrup (3288)<br>28976=>Spentrup (3288)<br>29012=>Spentrup (3288)"
1,9.04102754,56.78036175,29089,"29089=>Kjeldgård (630)"
1,8.98817125,56.76991976,29089,"29089=>Østergård (885)"
3,10.55570458,55.7971772,"28913 28985 29075","28913=>Kolby (655)<br>28985=>Kolby (655)<br>29075=>Hårmark (1567)"
3,10.59139922,55.83257606,"28913 28985 29010","28913=>Ørby (4612)<br>28985=>Pilemark (4613)<br>29010=>Brundby (4610)"
2,9.49149073,55.49190407,"28908 29009","28908=>Kolding (656)<br>29009=>Kolding (656)"
2,9.40914342,56.19449478,"28962 29048","28962=>Kragelund (666)<br>29048=>Kragelund (666)"
2,8.73269709,56.59971085,"28891 29054","28891=>Lime (699)<br>29054=>Lime (699)"
1,10.2483525,56.38890938,22828,"22828=>Lime (700)"
1,9.68866011,56.1539,22754,"22754=>Linå (702)"
1,10.13688564,57.42516618,28930,"28930=>Lørslev (720)"
3,10.03894551,56.84529275,"28902 29066 28884","28902=>Lyngby (748)<br>29066=>Lyngby (748)<br>28884=>Terndrup (2732)"
1,9.923186,54.924232,29216,"29216=>Majbølgård (762)"
4,9.56918805,55.01426547,"29216 29259 29264 29270","29216=>Varnæs (4524)<br>29259=>Varnæs (4524)<br>29264=>Varnæs (4524)<br>29270=>Varnæs (4524)"
3,9.33453634,56.97674443,"22760 22767 22779","22760=>Næsborg (802)<br>22767=>Næsborg (802)<br>22779=>Næsborg (802)"
1,9.46847879,56.98422923,22760,"22760=>Kjølby (2873)"
1,10.12774216,56.3615738,29088,"29088=>Nielstrup (817)"
6,10.55290497,55.96474501,"28899 28967 28973 28975 29031 29064","28899=>Nordby (825)<br>28967=>Nordby (825)<br>28973=>Nordby (825)<br>28975=>Nordby (825)<br>29031=>Nordby (825)<br>29064=>Nordby (825)"
1,9.76072121,55.80959324,29124,"29124=>Ølsted (856)"
4,10.33760845,56.50255801,"28879 22727 22845 22996","28879=>Ørsted (871)<br>22727=>Bode (3347)<br>22845=>Bode (3347)<br>22996=>Bode (3347)"
2,9.333894,56.286321,"23118 22968","23118=>Ovstrup (897)<br>22968=>Torning (3189)"
3,9.14028051,56.62178612,"23118 28926 28922","23118=>Lundø (2994)<br>28926=>Lundø (2994)<br>28922=>Lundø (2994)"
1,10.0483414,56.4586074,22941,"22941=>Randers (923)"
1,10.94768309,55.73466966,22925,"22925=>Refsnæs (933)"
4,8.77858359,55.33618399,"22954 22860 29187 29230","22954=>Ribe herred (944)<br>22860=>Ribe (945)<br>29187=>Ribe (945)<br>29230=>Ribe (945)"
3,8.61786553,55.80774922,"22860 22993 29201","22860=>Ølgod (4255)<br>22993=>Ølgod (4255)<br>29201=>Ølgod (4255)"
1,8.31588601,55.83310891,29230,"29230=>Nørre-Bork (4180)"
2,8.40857756,55.82287889,29230,"29230=>Esbøl (4184)<br>29230=>Sønder-Vium (4185)"
1,9.80910592,56.2073677,29193,"29193=>Røgind (965)"
9,9.7076326,56.07812985,"22738 22758 22878 22917 22929 22970 22989 23102 29051","22738=>Ry (979)<br>22758=>Ry (979)<br>22878=>Ry (979)<br>22917=>Ry (979)<br>22929=>Ry (979)<br>22970=>Ry (979)<br>22989=>Ry (979)<br>23102=>Ry (979)<br>29051=>Ry (979)"
2,9.74490166,56.20847193,"22917 23091","22917=>Skanderup (1037)<br>23091=>Skanderup (1037)"
2,9.861989,55.001004,"29028 29118","29028=>Sjellerup (1023)<br>29118=>Sjellerup (1023)"
1,9.85202605,57.47912237,29251,"29251=>Skallerup (1033)"
1,8.76125305,55.1559085,28894,"28894=>Skjærbæk (1053)"
1,10.309553,57.288205,22997,"22997=>Skjæve (1057)"
1,9.948025,56.15654904,23098,"23098=>Skovby (1067)"
1,9.94012695,56.1357368,23098,"23098=>Store-Ring (3534)"
1,11.88288025,55.32946632,28909,"28909=>Skudderløse (1079)"
1,11.34790612,55.41049695,29074,"29074=>Slagelse (1081)"
1,9.6512351,56.81585346,22916,"22916=>Sønderup (1110)"
1,9.01802188,56.20596981,22781,"22781=>Sunds (1147)"
2,9.84559872,56.01132805,"22741 22877","22741=>Tåning (1164)<br>22877=>Horndrup (3699)"
1,8.60490123,55.71878903,22976,"22976=>Tirstrup (1187)"
3,10.45547016,56.34646653,"22799 28903 28965","22799=>Torsager (1220)<br>28903=>Torsager (1220)<br>28965=>Torsager (1220)"
1,10.63684485,56.34493833,22799,"22799=>Nødager (3441)"
2,10.64140852,55.86326329,29027,"29027=>Torup (1230)<br>29027=>Besser (1583)"
1,10.43906478,56.19556484,29242,"29242=>Tved (1258)"
2,11.21559751,55.61861785,"29142 23104","29142=>Udby (1266)<br>23104=>Kildeklinte (1534)"
1,9.85225898,55.43914396,29212,"29212=>Udby (1268)"
2,9.8643127,55.4901813,"29212 29204","29212=>Roerslev (1982)<br>29204=>Roerslev (1982)"
2,10.29415327,56.57375799,"23086 28878","23086=>Udby (1269)<br>28878=>Udby (1269)"
7,8.43773889,55.75976735,"23086 29096 22894 22993 22982 23012 29107","23086=>Kvong (4218)<br>29096=>Kvong (4218)<br>22894=>Kvong (4218)<br>22993=>Kvong (4218)<br>22982=>Kvong (4218)<br>23012=>Kvong (4218)<br>29107=>Kvong (4218)"
3,9.36239271,55.19519696,"22842 22992 22998","22842=>Vedsted (1295)<br>22992=>Vedsted (1295)<br>22998=>Vedsted (1295)"
2,9.35986674,55.11536159,"22842 29203","22842=>Øster-Løgum (4508)<br>29203=>Øster-Løgum (4508)"
2,8.81679207,55.06013901,"22992 29019","22992=>Brede (4469)<br>29019=>Brede (4469)"
1,9.5521637,55.71165991,22818,"22818=>Vejle (1300)"
1,10.14363148,56.67328465,22736,"22736=>Vindblæs (1313)"
1,9.56888094,56.02252903,23081,"23081=>Vinding (1316)"
1,9.57397269,55.67828641,29248,"29248=>Vinding (1317)"
1,10.8669955,56.46153854,22808,"22808=>Voldby (1327)"
1,12.55338778,55.68488326,22948,"22948=>Kjøbenhavn (1341)"
1,12.34943384,55.61383749,29018,"29018=>Ishøj (1411)"
1,12.18113947,55.59419104,22934,"22934=>Tune (1442)"
2,11.20607472,55.51604821,29272,"29272=>Kirke-Helsinge (1517)<br>29272=>Rersø (4591)"
1,11.32926326,55.73117776,22834,"22834=>Nekselø (1538)"
1,11.29055466,55.34548624,22776,"22776=>Erdrup (1650)"
1,11.27076891,55.30099507,22776,"22776=>Gryderup (1655)"
1,11.3966158,55.31418906,29252,"29252=>Flakkebjærg (1663)"
1,11.99095308,55.10619822,29171,"29171=>Beldringe (1738)"
1,12.03285693,55.1049871,22825,"22825=>Skibbinge (1740)"
3,12.05718997,55.04785158,"22960 22978 22856","22960=>Mern (1750)<br>22978=>Mern (1750)<br>22856=>Sandvig (1752)"
1,12.04114425,54.9274551,29232,"29232=>Bogø (1773)"
2,11.49583027,54.66855918,"29199 29213","29199=>Errindlev (1820)<br>29213=>Errindlev (1820)"
1,11.78666929,54.75407107,28915,"28915=>Toreby (1836)"
1,11.95792563,54.7421868,29198,"29198=>Sillestrup (1852)"
5,10.51703362,55.39366477,"22827 22910 22932 22955 23001","22827=>Marslev (1931)<br>22910=>Marslev (1931)<br>22932=>Marslev (1931)<br>22955=>Marslev (1931)<br>23001=>Marslev (1931)"
1,10.35145453,55.48953687,28970,"28970=>Sletten (1948)"
1,10.37735441,55.45749823,22857,"22857=>Lumby (1952)"
7,9.97436333,55.39803678,"28890 28912 28921 29013 29063 29087 29139","28890=>Gjelsted (1984)<br>28912=>Gjelsted (1984)<br>28921=>Gjelsted (1984)<br>29013=>Gjelsted (1984)<br>29063=>Gjelsted (1984)<br>29087=>Gjelsted (1984)<br>29139=>Gjelsted (1984)"
1,10.00026428,55.15714245,29218,"29218=>Helnæs (2022)"
1,10.53161141,55.23721546,29102,"29102=>Ryslinge (2105)"
1,10.76532553,54.93131969,22852,"22852=>Langeland (2152)"
4,10.51428349,54.85569982,"22804 22820 22882 22972","22804=>Marstal (2177)<br>22820=>Marstal (2177)<br>22882=>Marstal (2177)<br>22972=>Marstal (2177)"
1,10.11557169,57.38471485,29046,"29046=>Sæsing (2307)"
1,9.94420384,57.27277164,28961,"28961=>Vester-Brønderslev (2339)"
1,10.09226362,57.2849937,29138,"29138=>Jerslev (2342)"
2,9.99781555,57.24808351,"28886 29137","28886=>Hvilshøj (2345)<br>29137=>Øster-Brønderslev (2348)"
1,9.62246601,57.24730572,22773,"22773=>Rødhus (2373)"
2,9.66958207,57.21084237,"22802 29038","22802=>Jetsmark (2375)<br>29038=>Jetsmark (2375)"
2,9.50899595,57.09430845,"22883 23128","22883=>Brovst (2398)<br>23128=>Brovst (2398)"
1,9.26240033,56.96547142,23128,"23128=>Løgstør (2613)"
2,11.03403286,57.27247189,"29052 29105","29052=>Læsø (2421)<br>29105=>Læsø (2421)"
1,8.52353886,56.89543114,23006,"23006=>Snedsted (2493)"
1,8.41671166,56.73685182,22780,"22780=>Tyholm (2516)"
1,8.31670931,56.75720487,29237,"29237=>Vestervig (2520)"
1,8.73672367,56.81203718,29072,"29072=>Mors (2550)"
2,8.79587901,56.77994997,"29244 29253","29244=>Lødderup (2555)<br>29253=>Lødderup (2555)"
2,10.12013506,57.06520776,"28957 28958","28957=>Skrolde (2644)<br>28958=>Vester-Hassing (2646)"
1,10.2569948,57.07626219,29112,"29112=>Ulsted (2653)"
1,9.7379295,56.99928983,23041,"23041=>Sønderholm (2682)"
1,9.75289773,56.93998814,22753,"22753=>Øster-Hornum (2688)"
2,9.74889991,56.8216214,"22764 22771","22764=>Ersted (2697)<br>22771=>Ersted (2697)"
3,9.81387091,56.77518886,"22764 28925 22765","22764=>Rold (2776)<br>28925=>Rold (2776)<br>22765=>Rold (2776)"
1,9.61424246,56.94766364,28925,"28925=>Lundbæk (2710)"
1,10.11611215,56.82866129,28920,"28920=>Lille-Brøndum (2728)"
6,9.75047632,56.7553991,"22759 22940 28883 29011 29058 29059","22759=>Ravnkilde (2786)<br>22940=>Ravnkilde (2786)<br>28883=>Ravnkilde (2786)<br>29011=>Ravnkilde (2786)<br>29058=>Ravnkilde (2786)<br>29059=>Ravnkilde (2786)"
1,9.3584361,56.83405309,23092,"23092=>Vester-Hornum (2798)"
1,9.28273477,56.72716896,23013,"23013=>Ullits (2818)"
1,9.242163,56.762627,22907,"22907=>Grynderup (2833)"
2,9.23898132,56.9372919,"22907 22763","22907=>Løgsted (2851)<br>22763=>Løgsted (2851)"
2,9.28668351,56.90872247,"22766 23026","22766=>Vilsted (2862)<br>23026=>Vilsted (2862)"
2,9.37836463,56.45780394,"23117 28926","23117=>Viborg (2887)<br>28926=>Viborg (2887)"
2,9.48690535,56.43894474,"23117 23065","23117=>Tapdrup (3073)<br>23065=>Tapdrup (3073)"
1,9.08061225,56.64924931,29111,"29111=>Grønning (2922)"
1,8.86505426,56.72059777,29045,"29045=>Vile (2962)"
6,9.02754383,56.82667681,"22912 22938 22959 23003 23004 29265","22912=>Fur (2963)<br>22938=>Fur (2963)<br>22959=>Fur (2963)<br>23003=>Fur (2963)<br>23004=>Fur (2963)<br>29265=>Fur (2963)"
2,9.12694735,56.43629508,"22963 29096","22963=>Dagbjærg (3005)<br>29096=>Dagbjærg (3005)"
1,9.19668307,56.44299631,22936,"22936=>Mønsted (3008)"
1,9.3617377,56.71405477,22861,"22861=>Lerkenfeldt (3025)"
1,9.7035367,56.49249568,22819,"22819=>Kvorning (3116)"
2,9.75365931,56.50156349,"22819 22939","22819=>Hammershøj (3117)<br>22939=>Hammershøj (3117)"
1,9.82062771,56.53635848,22895,"22895=>Nørre-Beg (3121)"
1,9.2564776,56.34050984,23157,"23157=>Havredal (3192)"
1,9.52005422,56.21760026,29086,"29086=>Sejling (3208)"
3,9.9973083,56.57504773,"22920 28877 28977","22920=>Gassum (3290)<br>28877=>Gassum (3290)<br>28977=>Gassum (3290)"
3,10.09665705,56.49371606,"22729 22740 29044","22729=>Gimming (3298)<br>22740=>Gimming (3298)<br>29044=>Gimming (3298)"
3,10.01154841,56.36434685,"22724 22787 28979","22724=>Vissing (3324)<br>22787=>Vissing (3324)<br>28979=>Vissing (3324)"
2,10.16468114,56.36638954,"22847 23125","22847=>Voldum (3329)<br>23125=>Voldum (3329)"
1,10.27140358,56.52008274,22728,"22728=>Vore (3345)"
3,10.82520646,56.50293044,"22832 28904","22832=>Gjerild (3401)<br>22832=>Stokbro (3403)<br>28904=>Gjerild (3401)"
1,10.81506089,56.36394809,28904,"28904=>Homå (3429)"
1,10.64962174,56.40887366,22855,"22855=>Tøstrup (3421)"
2,11.54457708,56.70505201,"22811 22866","22811=>Anholt (3422)<br>22866=>Anholt (3422)"
1,10.52367332,56.23113175,22901,"22901=>Agrie (3449)"
1,10.45998271,56.23367958,29188,"29188=>Vrinders (3451)"
1,10.50976994,56.19469411,29209,"29209=>Vistoft (3455)"
1,10.48550918,56.29043477,29094,"29094=>Følle (3462)"
1,10.31667047,56.31261766,29065,"29065=>Hornslet (3470)"
1,10.21049352,56.26873003,22918,"22918=>Todbjærg (3484)"
1,10.16522189,56.22110231,22730,"22730=>Lisbjærg (3500)"
4,9.97718946,56.22214714,"22734 22810 22872 23027","22734=>Lading (3513)<br>22810=>Lading (3513)<br>22872=>Lading (3513)<br>23027=>Lading (3513)"
2,9.93314947,56.18447132,"29233 29234","29233=>Sjelle (3518)<br>29234=>Sjelle (3518)"
1,9.91034966,56.15511621,22922,"22922=>Sønder-Galten (3538)"
4,10.07438221,56.10765887,"22922 28888 29160 22797","22922=>Edslev (3540)<br>28888=>Edslev (3540)<br>29160=>Edslev (3540)<br>22797=>Koldt (3541)"
1,10.0579747,56.12560055,22946,"22946=>Ormslev (3539)"
2,10.05437085,56.00731137,"28889 29092","28889=>Hvilsted (3561)<br>29092=>Hvilsted (3561)"
1,10.07181907,56.06807347,22964,"22964=>Blegind (3577)"
2,9.99651253,56.09972201,"28947 28954","28947=>Adslev (3581)<br>28954=>Adslev (3581)"
1,9.6928785,56.18970837,23131,"23131=>Vole (3613)"
3,9.77414217,56.10741748,"22756 22757 23177","22756=>Jævngryde (3640)<br>22757=>Jævngryde (3640)<br>23177=>Jævngryde (3640)"
2,9.49032722,55.93094871,"22915 22988","22915=>Klovborg (3679)<br>22988=>Klovborg (3679)"
1,9.8614429,55.97300374,22877,"22877=>Ejer (3689)"
2,9.737277,55.892376,"22751 28933","22751=>Vinten (3739)<br>28933=>Vrønding (3741)"
1,10.28890993,55.76166139,22793,"22793=>Endelave (3753)"
1,10.0789662,55.8261813,23149,"23149=>Hjarnø (3787)"
1,9.49300338,55.79621292,29217,"29217=>Fløjstrup (3810)"
1,9.23259893,55.8468133,29081,"29081=>Give (3829)"
1,8.89396153,55.83813703,22839,"22839=>Sønder-Omme (3845)"
1,8.50621919,56.0187194,22839,"22839=>Hanning (4164)"
1,9.30436222,55.71874186,29032,"29032=>Store-Lime (3875)"
1,9.40066468,55.65757088,29032,"29032=>Ammidsbøl (3894)"
1,9.30973468,55.61507191,22887,"22887=>Egtved (3899)"
1,9.71521383,55.54197639,23178,"23178=>Erritsø (3916)"
1,9.61210752,55.53973131,28963,"28963=>Tavlev (3919)"
1,8.17369803,56.62066705,22885,"22885=>Harboøre (3991)"
1,8.2237962,56.56018322,22812,"22812=>Hove (3999)"
1,8.17082473,56.54652613,22868,"22868=>Vandborg (4000)"
1,9.15762141,56.13579896,29194,"29194=>Ikast (4079)"
1,8.90706651,56.13391485,22880,"22880=>Snejbjærg (4088)"
2,8.24156208,56.26451832,"22782 22783","22782=>Staby (4107)<br>22783=>Staby (4107)"
3,8.30700823,56.19509868,"22782 22879 22937","22782=>Tim (4136)<br>22879=>Tim (4136)<br>22937=>Tim (4136)"
1,8.33953781,56.29960833,22783,"22783=>Nørre-Vosborg (4111)"
4,8.26693924,56.09391203,"29079 29110 29185 29186","29079=>Rindum (4126)<br>29110=>Rindum (4126)<br>29185=>Rindum (4126)<br>29186=>Rindum (4126)"
4,8.37206538,55.85016623,"22884 22953 22965 23007","22884=>Hemmet (4181)<br>22953=>Hemmet (4181)<br>22965=>Hemmet (4181)<br>23007=>Hemmet (4181)"
2,8.4446389,55.90317791,"22926 22969","22926=>Lønborg (4188)<br>22969=>Lønborg (4188)"
1,8.53756484,55.79289029,22893,"22893=>Strellev (4197)"
3,8.33130981,55.6159675,"22904 22950 22784","22904=>Billum (4211)<br>22950=>Billum (4211)<br>22784=>Kjelst (4212)"
2,8.28871539,55.77870045,"22888 22908","22888=>Nørre-Nebel (4220)<br>22908=>Nørre-Nebel (4220)"
1,8.35700288,55.79599626,22961,"22961=>Lydum (4222)"
3,8.56476803,55.66314101,"22971 22977 22985","22971=>Torstrup (4243)<br>22977=>Torstrup (4243)<br>22985=>Torstrup (4243)"
3,8.64862908,55.69758148,"22881 22897 22962","22881=>Hodde (4247)<br>22897=>Hodde (4247)<br>22962=>Hodde (4247)"
2,8.75298581,55.70464667,"22981 29271","22981=>Andsager (4257)<br>29271=>Andsager (4257)"
1,8.42013036,55.42077137,29250,"29250=>Fanø (4276)"
1,8.99680232,55.69503806,28989,"28989=>Hejnsvig (4290)"
1,9.14255855,55.47592324,29083,"29083=>Vejen (4334)"
4,8.73244274,55.36384026,"28968 29025 29050 29062","28968=>Farup (4354)<br>29025=>Farup (4354)<br>29050=>Farup (4354)<br>29062=>Farup (4354)"
1,8.68281929,55.29186965,29275,"29275=>Vester-Vedsted (4368)"
1,9.45534661,55.18028273,28929,"28929=>Hoptrup (4371)"
2,9.050939,55.28936841,"29236 29278","29236=>Gram (4415)<br>29278=>Gram (4415)"
1,8.8237801,55.25470959,29266,"29266=>Råager (4442)"
1,8.96530936,54.94760919,29269,"29269=>Rørkjær (4482)"
1,9.25058971,54.9343524,29033,"29033=>Tinglev (4492)"
1,9.46147095,55.09054028,29267,"29267=>Løjt (4511)"
1,9.30968473,55.02647158,22841,"22841=>Kassø (4517)"
1,9.07696481,54.9699841,28952,"28952=>Snogbæk (4532)"
1,10.65777485,55.45303825,23090,"23090=>Kjærteminde (4581)"
1,10.4799494,57.47709661,29023,"29023=>Jerup (4679)"
