freq,longitude,latitude,story_ids,story_place
1,9.93214951,57.04020941,15420,"15420=>Ålborg (27)"
3,9.74889991,56.8216214,"15318 2097","15318=>Årestrup (54)<br>15318=>Torstedlund (2700)<br>2097=>Torstedlund (2700)"
3,10.19506313,56.16685115,"2179 15346 15347","2179=>Århus (55)<br>15346=>Århus (55)<br>15347=>Århus (55)"
1,10.55290497,55.96474501,15347,"15347=>Nordby (825)"
2,10.40685789,57.44038976,15392,"15392=>Åsted (81)<br>15392=>Kvissel (2228)"
2,10.30657345,56.99519175,"15392 15391","15392=>Hals (2656)<br>15391=>Hals (2656)"
16,9.06787969,56.69700668,"2128 2129 2130 2131 15335 15323 15336 15324","2128=>Astrup (85)<br>2128=>Eskjær (285)<br>2128=>Nørgård (828)<br>2129=>Astrup (85)<br>2129=>Eskjær (285)<br>2129=>Nørgård (828)<br>2130=>Astrup (85)<br>2130=>Eskjær (285)<br>2130=>Nørgård (828)<br>2131=>Astrup (85)<br>2131=>Nørgård (828)<br>15335=>Eskjær (285)<br>15335=>Grinderslev (2916)<br>15323=>Grinderslev (2916)<br>15336=>Grinderslev (2916)<br>15324=>Grinderslev (2916)"
3,12.08563216,54.84845785,"15334 15335 15336","15334=>Åstrup (103)<br>15335=>Åstrup (103)<br>15336=>Åstrup (103)"
1,10.19922035,57.5422646,15416,"15416=>Bindslev (127)"
1,11.4122837,55.26619431,2152,"2152=>Bjærge (135)"
1,9.6598159,55.65100588,2237,"2237=>Brøndsted mølle (200)"
5,9.11742998,55.5219207,"15372 15371 2113 2141","15372=>Drostrup (243)<br>15372=>Læborg (4339)<br>15371=>Læborg (4339)<br>2113=>Hundsbæk (4338)<br>2141=>Læborg (4339)"
1,10.50362009,57.45082532,15337,"15337=>Flade (310)"
2,12.2183729,54.94106039,"2102 15379","2102=>Frenderupgård (319)<br>15379=>Frenderupgård (319)"
1,12.48500029,54.98462945,2102,"2102=>Hune sø (1767)"
3,9.74794645,57.16692875,"15383 2303 2246","15383=>Fristrup (320)<br>2303=>Ry å (980)<br>2246=>Vildmosen (2614)"
2,9.05474062,56.1479359,"15345 15353","15345=>Gjellerup (348)<br>15353=>Gjellerup (348)"
8,9.12705174,55.9459115,"15345 2177 2178 15340 15354 15364","15345=>Brande (3837)<br>2177=>Brande (3837)<br>2177=>Sandfeld sande (3841)<br>2178=>Brande (3837)<br>2178=>Sandfeld sande (3841)<br>15340=>Brande (3837)<br>15354=>Brande (3837)<br>15364=>Brande (3837)"
4,9.21079873,57.05402951,"2105 2106 2107 2108","2105=>Gjøtrup (360)<br>2106=>Gjøtrup (360)<br>2107=>Gjøtrup (360)<br>2108=>Gjøtrup (360)"
1,10.89117652,56.40594271,2257,"2257=>Grenå (364)"
2,8.46526917,56.51842152,"2214 2211","2214=>Gudum (371)<br>2211=>Gudum kloster (3977)"
1,9.81387091,56.77518886,2214,"2214=>Rold (2776)"
2,9.21746784,56.59746309,"2123 2197","2123=>Hald (384)<br>2197=>Ørslev kloster (2995)"
4,9.14028051,56.62178612,"2123 2195 15327 15369","2123=>Lundø (2994)<br>2195=>Lundø (2994)<br>15327=>Lundø (2994)<br>15369=>Lundø (2994)"
2,10.01192636,57.15092785,"15315 15385","15315=>Hammer (395)<br>15385=>Hammer (395)"
1,8.85177166,56.57478117,15393,"15393=>Håsum (416)"
1,9.12831637,56.70268186,2208,"2208=>Havbjærg (419)"
1,10.15273583,57.21287001,15381,"15381=>Hellevad (434)"
3,10.16486773,57.26998552,"15387 15404 15405","15387=>Hellum (439)<br>15404=>Hellum (439)<br>15405=>Hellum (439)"
2,8.95267034,56.14219771,"15406 15414","15406=>Herning (446)<br>15414=>Herning (446)"
3,10.61029428,55.28111097,"15329 15332 2117","15329=>Herrested (447)<br>15332=>Herrested (447)<br>2117=>Ravnholt (930)"
2,8.73479715,57.01500974,"15325 15421","15325=>Hillerslev (459)<br>15421=>Hillerslev (459)"
1,11.50942046,55.4901315,15325,"15325=>Bromølle (1605)"
1,9.54388431,56.3380454,2284,"2284=>Højbjærg (478)"
1,11.59905949,55.91342466,2138,"2138=>Højby (480)"
2,10.30030868,56.55153665,15377,"15377=>Holbæk (496)<br>15377=>Kare (3340)"
1,9.9843203,56.65025328,2182,"2182=>Hov (534)"
1,8.81115202,57.03933168,15376,"15376=>Hundstrup (551)"
1,8.362999,56.86183,2137,"2137=>Hvidbjærg (559)"
1,9.01342881,56.66903046,15323,"15323=>Jebjærg (581)"
1,9.95341354,56.40107065,2181,"2181=>Jebjærg (582)"
1,12.16277647,55.00013266,2120,"2120=>Langø (686)"
1,9.81101498,56.1519176,15401,"15401=>Låsby (691)"
1,8.61786553,55.80774922,2207,"2207=>Lindbjærggård (706)"
1,10.59139922,55.83257606,2186,"2186=>Lindholm (711)"
1,8.480673,56.706579,15320,"15320=>Lindholm (713)"
6,9.01688742,55.5661491,"15320 2157 2158 2159 2160 15341","15320=>Lindserhøj (4314)<br>2157=>Lindknud (4313)<br>2158=>Lindknud (4313)<br>2159=>Lindknud (4313)<br>2160=>Lindknud (4313)<br>15341=>Lindknud (4313)"
1,9.99211737,56.4052325,2110,"2110=>Lundbjærg (722)"
1,9.26398226,56.70269291,2287,"2287=>Lundgård (731)"
1,9.30272533,56.56686453,2198,"2198=>Lynderup (744)"
1,9.34733479,56.52834942,2198,"2198=>Vorde (3085)"
2,12.50391673,55.77013224,"2153 15338","2153=>Lyngby (746)<br>15338=>Lyngby (746)"
1,10.21339439,56.3006803,15378,"15378=>Mejlby (780)"
1,10.37665808,56.33447364,15409,"15409=>Mørke (796)"
1,10.25423316,55.48575526,2286,"2286=>Ørritslev (866)"
1,9.2370254,56.56851646,15411,"15411=>Ørum (874)"
1,9.02997866,56.59246572,15328,"15328=>Resen (939)"
1,9.33949841,55.05584055,2148,"2148=>Ris (952)"
1,10.39646714,54.84003669,15356,"15356=>Rise (955)"
1,9.03680932,56.71756594,15382,"15382=>Rybjærg (982)"
1,11.30667568,55.54653956,2149,"2149=>Sæby (990)"
1,10.01132401,56.82231318,15361,"15361=>Siem (1013)"
1,9.5470055,56.16936133,2252,"2252=>Silkeborg (1017)"
1,10.67239199,55.53421698,15316,"15316=>Stubberup (1141)"
1,9.01802188,56.20596981,2187,"2187=>Sunds (1147)"
1,9.84559872,56.01132805,2249,"2249=>Tåning (1164)"
1,9.82346994,55.50641302,2193,"2193=>Tårup (1169)"
1,11.15514541,55.6801489,2154,"2154=>Tømmerby (1204)"
2,11.70788416,55.55549406,"2142 15351","2142=>Tostrup (1233)<br>15351=>Tostrup (1233)"
1,11.65480559,55.58488478,15351,"15351=>Uggerløse (1481)"
2,10.13374931,56.09126859,"2170 15342","2170=>Tranbjærg (1243)<br>15342=>Tranbjærg (1243)"
1,9.5521637,55.71165991,15407,"15407=>Vejle (1300)"
2,9.34811902,56.93022611,"2264 15394","2264=>Vindblæs (1312)<br>15394=>Vindblæs (1312)"
1,9.49686839,56.41942697,2099,"2099=>Vinkel (1320)"
1,12.27361833,55.73497767,2151,"2151=>Smørum (1416)"
1,12.36413324,55.78331028,2112,"2112=>Værhøj (1421)"
1,11.86089979,55.59329464,2145,"2145=>Kirke-Hvalsø (1426)"
1,12.16762997,55.52527013,15363,"15363=>Jersie (1446)"
1,11.40951026,55.66108143,2241,"2241=>Jyderup (1497)"
2,11.30930063,55.50046107,"2122 2150","2122=>Tjørnelunde (1514)<br>2150=>Tjørnelunde (1514)"
1,11.4970398,55.81491731,2191,"2191=>Tolsager (1557)"
1,11.52566098,55.50739674,15410,"15410=>Munke-Bjærgby (1602)"
1,11.25718547,55.36278196,2144,"2144=>Vemmelev (1649)"
1,12.05240733,55.11870202,2295,"2295=>Præstø (1684)"
1,12.11021698,55.46453395,2147,"2147=>Lellinge (1687)"
1,11.88349403,55.25085219,2143,"2143=>Toksværd (1725)"
1,12.03285693,55.1049871,2146,"2146=>Skibbinge (1740)"
2,12.28696514,54.9899554,"2242 2304","2242=>Lindemark (1758)<br>2304=>Stege (1760)"
1,12.39979713,54.99535345,15352,"15352=>Elmelunde (1764)"
1,12.13567382,54.89973258,2104,"2104=>Dame (1771)"
3,12.04114425,54.9274551,"2184 2185 15400","2184=>Bogø (1773)<br>2185=>Bogø (1773)<br>15400=>Bogø, Mønbo (1774)"
1,11.94195919,54.8985561,2184,"2184=>Sort sø (1845)"
1,14.70621665,55.10155898,2114,"2114=>Rønne (1775)"
1,11.65536726,54.88942158,2293,"2293=>Vigsnæs (1834)"
1,12.04168958,54.89001243,2183,"2183=>Stubbekjøbing (1841)"
1,10.39599158,55.3017613,2190,"2190=>Lyndelse (1918)"
1,10.37733781,55.28532052,2127,"2127=>Søby Søgård (1921)"
1,10.64791633,55.49989519,15371,"15371=>Mettes Bjærg, Fru (1939)"
1,10.21582202,55.47335524,2132,"2132=>Langesø (1972)"
1,9.9260533,55.32945141,2121,"2121=>Sandager (2008)"
1,10.0373779,55.22283913,2258,"2258=>Brøndgård (2020)"
2,10.45413182,55.20170346,"2188 2189","2188=>Herringe (2069)<br>2189=>Herringe (2069)"
1,10.15086107,55.2019244,2134,"2134=>Søbo (2084)"
1,10.48172023,55.2383892,2118,"2118=>Ringe sø (2099)"
1,10.72374307,55.38359802,15399,"15399=>Bovet (2132)"
2,10.76532553,54.93131969,"2236 2238","2236=>Langeland (2152)<br>2238=>Langeland (2152)"
1,10.69292709,54.83078735,2119,"2119=>Ristinge (2172)"
1,10.52416574,57.43632047,15417,"15417=>Frederikshavn (2179)"
2,10.4799494,57.47709661,15314,"15314=>Bratten (2204)<br>15314=>Elling (2205)"
1,10.13688564,57.42516618,15418,"15418=>Ugilt (2242)"
1,10.09226362,57.2849937,15391,"15391=>Jerslev (2342)"
2,9.99781555,57.24808351,"15403 15413","15403=>Øster-Brønderslev (2348)<br>15413=>Øster-Brønderslev (2348)"
2,9.66958207,57.21084237,"15321 2111","15321=>Jetsmark (2375)<br>2111=>Sandalsbjærg (2379)"
1,9.71390405,57.06848707,15321,"15321=>Gjøl (2384)"
1,9.46249934,57.13223706,2255,"2255=>Underliden (2396)"
1,8.60325925,56.90880791,2310,"2310=>Skjoldborg (2480)"
2,8.48840034,56.84682453,2139,"2139=>Hørdum (2498)<br>2139=>Irup (2500)"
6,8.40543892,56.71055607,"2167 2168 15339 15343 15358 15365","2167=>Ydby (2531)<br>2168=>Ydby (2531)<br>15339=>Ydby (2531)<br>15343=>Ydby (2531)<br>15358=>Ydby (2531)<br>15365=>Ydby (2531)"
2,10.21956972,56.97030321,15386,"15386=>Dokkedal (2673)<br>15386=>Mov (2675)"
1,9.7379295,56.99928983,15398,"15398=>Sønderholm (2682)"
1,9.59358865,56.75149212,2109,"2109=>Kongens-Tisted (2811)"
1,9.03275937,56.56919621,2196,"2196=>Høstrup (2890)"
1,9.09668456,56.76087207,2202,"2202=>Junget (2933)"
1,8.90403439,56.69059165,15322,"15322=>Hjerk (2955)"
2,9.02754383,56.82667681,"2200 2201","2200=>Fur (2963)<br>2201=>Fur (2963)"
1,9.3617377,56.71405477,2280,"2280=>Vester-Bølle (3029)"
1,9.3387978,56.69549546,2285,"2285=>Gjedsted kjær (3033)"
2,9.43281814,56.44333188,"2100 2101","2100=>Rindsholm (3071)<br>2101=>Rindsholm (3071)"
1,9.47211056,56.53673367,2279,"2279=>Løvel (3091)"
1,9.57362711,56.53268589,2277,"2277=>Vammen (3095)"
3,9.67822618,56.56129543,"2161 2162 15374","2161=>Lindum (3097)<br>2162=>Lindum (3097)<br>15374=>Lindum (3097)"
1,9.47110478,56.1483529,2169,"2169=>Funder (3219)"
1,10.03486015,56.61377013,2098,"2098=>Skrødstrup skov (3250)"
1,10.31667047,56.31261766,2240,"2240=>Hornslet (3470)"
1,10.20345653,56.2106994,2194,"2194=>Egå bro (3480)"
2,10.16522189,56.22110231,"2213 15397","2213=>Lisbjærg (3500)<br>15397=>Lisbjærg (3500)"
1,10.18626422,55.95692501,2206,"2206=>Randlev (3554)"
1,10.21320041,55.95881024,15390,"15390=>Bjergelide (3556)"
1,9.87513313,55.82054042,15390,"15390=>Ut (3761)"
2,9.99651253,56.09972201,"15388 15415","15388=>Adslev (3581)<br>15415=>Adslev (3581)"
1,9.73981585,56.22900602,2215,"2215=>Gjern hede (3616)"
1,9.58871067,55.95817429,15362,"15362=>Ring (3668)"
1,9.45071866,56.04025959,2205,"2205=>Vrads (3676)"
4,9.8614429,55.97300374,"2163 2164 2165 2166","2163=>Ovsted. Voer (3692)<br>2164=>Ovsted. Voer (3692)<br>2165=>Ovsted. Voer (3692)<br>2166=>Ovsted. Voer (3692)"
1,9.76258507,55.85186739,2133,"2133=>Bygholm (3788)"
1,9.54601738,55.7627968,15395,"15395=>Grejs (3803)"
1,9.44747622,55.70808741,15349,"15349=>Skibet (3849)"
1,9.32137834,55.77096642,15425,"15425=>Gadbjærg (3858)"
1,9.30436222,55.71874186,15425,"15425=>Limskov (4603)"
1,9.41612043,55.75406825,15422,"15422=>Jelling (3882)"
1,9.56585006,55.61130034,2155,"2155=>St.-Velling (3927)"
1,8.61016464,56.36097923,2156,"2156=>Holstebro (3961)"
7,8.40990349,56.55878913,"2140 2171 2172 2173 2174 2175 15350","2140=>Nørre-Nissum (3964)<br>2171=>Nørre-Nissum (3964)<br>2172=>Nørre-Nissum (3964)<br>2173=>Nørre-Nissum (3964)<br>2174=>Nørre-Nissum (3964)<br>2175=>Nørre-Nissum (3964)<br>15350=>Nørre-Nissum (3964)"
1,8.31181859,56.45083072,15402,"15402=>Flynder Sø (3971)"
1,8.97059326,56.52697157,15402,"15402=>Estvad (4035)"
1,8.21073292,56.39423665,15408,"15408=>Nes (3974)"
1,8.38210526,56.52741547,15412,"15412=>Fabjærg (3980)"
1,8.16818091,56.51132499,15419,"15419=>Dybe (4004)"
1,8.78630415,56.52065512,2124,"2124=>Landting (4042)"
3,8.86845772,56.45666669,"2124 2125 2126","2124=>Stubbergård (4051)<br>2125=>Stubbergård (4051)<br>2126=>Stubbergård (4051)"
1,9.15762141,56.13579896,2192,"2192=>Ikast (4079)"
1,8.28506315,56.23990719,2210,"2210=>Madum (4108)"
1,8.49162946,55.80164939,2250,"2250=>Lyne (4193)"
1,9.35986674,55.11536159,15424,"15424=>Øster-Løgum (4508)"
