freq,longitude,latitude,story_ids,story_place
1,8.86783095,54.97934547,17071,"17071=>Abildgård (2)"
4,9.6512351,56.81585346,"17071 4496 17070 4513","17071=>Sønderup (1110)<br>4496=>Sønderup (1110)<br>17070=>Sønderup (1110)<br>4513=>Rodsted (2702)"
1,9.74794645,57.16692875,4190,"4190=>Åby (3)"
2,9.12743054,55.13081541,"4424 4628","4424=>Agerskov (12)<br>4628=>Galsted (4425)"
1,8.24072529,56.77887529,17319,"17319=>Agger (14)"
2,9.96556941,57.17978982,"4344 16964","4344=>Ajstrup (16)<br>16964=>Ajstrup (16)"
3,12.13567382,54.89973258,"16964 4934","16964=>Fanefjord (1772)<br>16964=>Grønsund (4554)<br>4934=>Fanefjord (1772)"
1,9.01054031,56.4920081,17145,"17145=>Åkjær (21)"
1,9.79005515,56.40882276,17145,"17145=>Ulstrup (1280)"
3,8.28146,55.632333,"4176 17272 4476","4176=>Ål (22)<br>17272=>Ål (22)<br>4476=>Tudel (4233)"
1,8.36724634,55.57513827,4176,"4176=>Hostrup (530)"
4,8.3699163,55.6223361,"4176 4177 4195","4176=>Jandrup (4208)<br>4177=>Jandrup (4208)<br>4177=>Jandrup å (4209)<br>4195=>Jandrup (4208)"
1,8.33130981,55.6159675,4176,"4176=>Billum (4211)"
1,9.93214951,57.04020941,4814,"4814=>Ålborg (27)"
1,9.92621509,57.07193063,4814,"4814=>Nørre-Sundby (2609)"
2,9.56111779,55.88758037,"4385 4386","4385=>Åle (29)<br>4386=>Åle (29)"
2,9.39525444,56.37789782,"4443 17250","4443=>Almind (36)<br>17250=>Almind (36)"
1,10.28886161,56.75487617,4185,"4185=>Als (38)"
3,8.97059326,56.52697157,"4185 4184 4186","4185=>Estvadgård (4036)<br>4184=>Estvad (4035)<br>4186=>Estvad (4035)"
4,10.84759727,56.37121286,"4750 4751 4752 4753","4750=>Ålsø (42)<br>4751=>Ålsø (42)<br>4752=>Ålsø (42)<br>4753=>Ålsø (42)"
1,9.23692909,55.48401691,4563,"4563=>Andst (53)"
2,10.19506313,56.16685115,"4887 17339","4887=>Århus (55)<br>17339=>Århus (55)"
1,9.50846948,56.80216045,4366,"4366=>Års (58)"
2,8.52353886,56.89543114,"4666 4275","4666=>Årup (63)<br>4275=>Snedsted (2493)"
1,8.49454284,56.87033328,4666,"4666=>Hørsted (2495)"
1,9.43281814,56.44333188,17334,"17334=>Asmild kloster (70)"
4,9.37836463,56.45780394,"17334 17061 4528 17296","17334=>Viborg (2887)<br>17061=>Viborg (2887)<br>4528=>Viborg (2887)<br>17296=>Viborg (2887)"
1,9.90594911,55.480346,4631,"4631=>Asperup (74)"
3,9.90012939,55.27057781,"4292 4871 16995","4292=>Assens (77)<br>4871=>Assens (77)<br>16995=>Assens og Falslev Heder (1877)"
3,9.35986674,55.11536159,"4871 17099 17230","4871=>Lerskov (4505)<br>17099=>Øster-Løgum (4508)<br>17230=>Øster-Løgum (4508)"
5,9.97477036,56.76993809,"17010 17072 17333 17387","17010=>Astrup (84)<br>17072=>Astrup (84)<br>17333=>Astrup (84)<br>17333=>Villestrup (2771)<br>17387=>Astrup (84)"
2,9.1999361,55.52522839,17010,"17010=>Gjesten (4304)<br>17010=>Revsing (4592)"
1,11.73604851,54.69654826,17072,"17072=>Kibæk (1839)"
1,12.08563216,54.84845785,4844,"4844=>Åstrup (103)"
5,9.52098813,56.18420884,"4256 4325 4808 17047","4256=>Balle (111)<br>4325=>Balle (111)<br>4325=>Gub sø (3205)<br>4808=>Balle (111)<br>17047=>Balle (111)"
2,9.46495051,56.20785556,"4256 4324","4256=>Sinding (1021)<br>4324=>Sinding (1021)"
1,9.27989612,56.14515128,4325,"4325=>Bording (161)"
4,9.40914342,56.19449478,"4325 4324 4544 4461","4325=>Kragelund (666)<br>4324=>Kragelund (666)<br>4544=>Kragelund (666)<br>4461=>Stenholt (3218)"
3,8.40385203,56.80774672,"17039 17303 4962","17039=>Bedsted (120)<br>17303=>Bedsted (120)<br>4962=>Tanderup (1157)"
3,10.03387302,57.51267197,"4233 4634 4635","4233=>Bjærgby (131)<br>4634=>Bjærgby (131)<br>4635=>Bjærgby (131)"
1,8.73114513,56.8682726,4419,"4419=>Bjærgby (132)"
1,11.34973579,55.66575769,4647,"4647=>Bjærgsted (143)"
1,11.62415043,55.66339984,4647,"4647=>Nørre-Jærnløse (1469)"
1,11.6609647,54.87284723,4647,"4647=>Sjællands odde (1554)"
2,11.57298336,55.29786289,"4647 4654","4647=>Hjelmsømagle (1627)<br>4654=>Sneslev (1629)"
2,9.8071931,57.15011259,"4282 4744","4282=>Bjærgsted (145)<br>4744=>Bjærgsted (145)"
7,9.87513313,55.82054042,"4417 17340 17344 17035","4417=>Boller (155)<br>4417=>Ut (3761)<br>17340=>Boller (155)<br>17340=>Ut (3761)<br>17344=>Boller (155)<br>17344=>Ut (3761)<br>17035=>Ut (3761)"
1,9.86197942,55.85797729,17340,"17340=>Horsens (525)"
4,8.75039165,56.40578678,"4711 16973 17216 17267","4711=>Borbjærg (160)<br>16973=>Borbjærg (160)<br>17216=>Borbjærg (160)<br>17267=>Borbjærg (160)"
3,8.78630415,56.52065512,"17216 17347","17216=>Ejsing (4041)<br>17347=>Ejsing (4041)<br>17347=>Landting (4042)"
18,9.65366138,55.88982838,"4448 4449 4450 4451 4452 4453 4454 4455 17183 4412 17358","4448=>Boring (165)<br>4449=>Boring (165)<br>4449=>Hvirring (3744)<br>4450=>Boring (165)<br>4450=>Hvirring (3744)<br>4451=>Boring (165)<br>4451=>Hvirring (3744)<br>4452=>Boring (165)<br>4452=>Hvirring (3744)<br>4453=>Boring (165)<br>4453=>Hvirring (3744)<br>4454=>Boring (165)<br>4455=>Boring (165)<br>4455=>Hvirring (3744)<br>17183=>Boring (165)<br>17183=>Hvirring (3744)<br>4412=>Hvirring (3744)<br>17358=>Hvirring (3744)"
1,9.25474788,56.486222,4319,"4319=>Borris (169)"
1,10.6075345,55.02150072,17187,"17187=>Bregninge (194)"
2,9.6598159,55.65100588,"17086 4760","17086=>Brøndsted mølle (200)<br>4760=>Gaverslund (3923)"
1,8.91775704,56.58922585,4955,"4955=>Brøndum (202)"
1,10.6586365,55.51612464,17078,"17078=>Dalby (214)"
1,8.21046211,56.48868136,17078,"17078=>Ramme (4006)"
6,9.78611904,56.16882659,"4575 4576 4577 4578 17212 17213","4575=>Dallerup (216)<br>4576=>Dallerup (216)<br>4577=>Dallerup (216)<br>4578=>Dallerup (216)<br>17212=>Dallerup (216)<br>17213=>Dallerup (216)"
3,9.81101498,56.1519176,"4575 4577 4579","4575=>Kalbygård (588)<br>4577=>Kalbygård (588)<br>4579=>Kalbygård (588)"
15,9.68866011,56.1539,"4575 4576 4577 4578 17212 17213 4265 4948 17093","4575=>Linå (702)<br>4575=>Bjarup (4629)<br>4576=>Linå (702)<br>4576=>Mollerup (791)<br>4576=>Bjarup (4629)<br>4577=>Linå (702)<br>4577=>Bjarup (4629)<br>4578=>Linå (702)<br>4578=>Bjarup (4629)<br>17212=>Linå (702)<br>17212=>Bjarup (4629)<br>17213=>Linå (702)<br>4265=>Linå (702)<br>4948=>Skjellerup (1059)<br>17093=>Svejbæk (3610)"
1,9.74345719,56.68568787,4308,"4308=>Døstrup (230)"
1,8.80624546,55.11730256,17038,"17038=>Døstrup (231)"
5,8.79464452,56.88904662,"4921 4434 4919 4920","4921=>Dråby (232)<br>4921=>Flade (311)<br>4434=>Flade (311)<br>4919=>Flade (311)<br>4920=>Flade (311)"
2,10.0483414,56.4586074,"4479 4733","4479=>Dronningborg (239)<br>4733=>Randers (923)"
14,9.85316849,56.58423344,"4479 4472 4776 4802 4222 4273 4350 4777 4912 4913 4914 4473 4474","4479=>Karlby (595)<br>4472=>Karlby (595)<br>4472=>Handest (3277)<br>4776=>Glenstrup (3273)<br>4802=>Glenstrup kloster (3274)<br>4222=>Glenstrup (3273)<br>4273=>Glenstrup (3273)<br>4350=>Glenstrup (3273)<br>4777=>Glenstrup (3273)<br>4912=>Glenstrup (3273)<br>4913=>Glenstrup (3273)<br>4914=>Glenstrup (3273)<br>4473=>Handest (3277)<br>4474=>Handest (3277)"
8,10.28792117,57.15748006,"4740 4741 4742 4833 17329 4466 4467","4740=>Dronninglund (242)<br>4741=>Dronninglund (242)<br>4741=>Hundslund (549)<br>4742=>Dronninglund (242)<br>4833=>Dronninglund (242)<br>17329=>Dronninglund (242)<br>4466=>Gammel-kirke (2290)<br>4467=>Gammel-kirke (2290)"
11,10.00262436,57.36224501,"17329 4402 4736 4737 17330 4781 4792 4793 4794","17329=>Vrejlev (2314)<br>17329=>Vrejlev Kloster (2315)<br>4402=>Vrejlev (2314)<br>4736=>Vrejlev (2314)<br>4737=>Vrejlev (2314)<br>17330=>Vrejlev (2314)<br>17330=>Vrejlev Kloster (2315)<br>4781=>Vrejlev Kloster (2315)<br>4792=>Vrejlev Kloster (2315)<br>4793=>Vrejlev Kloster (2315)<br>4794=>Vrejlev Kloster (2315)"
1,10.0522261,55.91537141,17329,"17329=>Hundslund Kloster (3564)"
1,8.94704952,56.7403163,4425,"4425=>Durup (247)"
3,10.52468885,55.17876846,"4321 4328 4601","4321=>Egeskov (264)<br>4328=>Dybe mae (2046)<br>4601=>Kværndrup (2047)"
10,9.25326821,55.07733912,"4764 4765 17311 17312 17313 17314 17315 17316 17317 4761","4764=>Egvad (266)<br>4765=>Egvad (266)<br>17311=>Egvad (266)<br>17312=>Egvad (266)<br>17313=>Egvad (266)<br>17314=>Egvad (266)<br>17315=>Egvad (266)<br>17316=>Egvad (266)<br>17317=>Egvad (266)<br>4761=>Nørre-Hostrup (4498)"
1,10.81578283,56.41520333,4511,"4511=>Enslev (278)"
1,10.28306119,56.4446316,4511,"4511=>Gl.-Estrup (3362)"
2,10.68098765,56.44202313,"4511 4214","4511=>Ramten (3413)<br>4214=>Ørum (876)"
1,11.7649764,55.57309263,4164,"4164=>Eskildstrup (282)"
3,11.4397201,55.80248958,"4583 4584 4714","4583=>Fårevejle (289)<br>4584=>Fårevejle (289)<br>4714=>Fårevejle (289)"
2,11.30930063,55.50046107,"4606 4713","4606=>Finderup (303)<br>4713=>Finderup (303)"
1,9.28827377,56.41466039,16971,"16971=>Finderup (304)"
2,8.50621919,56.0187194,"4462 17136","4462=>Finderup (305)<br>17136=>Hanning (4164)"
3,9.35147784,56.16917342,"4462 4324 4421","4462=>Engesvang (3224)<br>4324=>Engesvang (3224)<br>4421=>Engesvang (3224)"
2,9.30375303,56.50826702,"4306 4433","4306=>Fiskbæk (306)<br>4433=>Fiskbæk (306)"
1,10.01463184,55.44131074,17004,"17004=>Fjelsted (307)"
1,9.62628252,55.93511271,17394,"17394=>Fovling (314)"
1,8.9366792,55.45078486,17007,"17007=>Fovling (315)"
2,9.27023832,56.73474316,"4590 4591","4590=>Fovlum (316)<br>4591=>Fovlum (316)"
3,9.28273477,56.72716896,"4590 4591 4364","4590=>Ullits (2818)<br>4591=>Ullits (2818)<br>4364=>Ullits (2818)"
6,10.71589465,55.24233713,"4936 4937 4938 4939 4940 4941","4936=>Frørup (322)<br>4937=>Frørup (322)<br>4938=>Frørup (322)<br>4939=>Frørup (322)<br>4940=>Frørup (322)<br>4941=>Frørup (322)"
1,9.05474062,56.1479359,17121,"17121=>Gjellerup (348)"
1,10.43087602,56.45704946,4303,"4303=>Gjesing (351)"
2,8.35734437,56.71842997,"4878 17416","4878=>Gjetrup (353)<br>17416=>Hjælpensbjærg (2533)"
6,8.92627143,55.75784153,"4283 4362 4789 16976 16977 17062","4283=>Grindsted (366)<br>4362=>Grindsted (366)<br>4789=>Grindsted (366)<br>16976=>Grindsted (366)<br>16977=>Grindsted (366)<br>17062=>Grindsted (366)"
2,9.99211737,56.4052325,"16976 16982","16976=>Værum (3316)<br>16982=>Værum (3316)"
5,9.61833913,56.27388691,"4784 4785 17335","4784=>Grønbæk (367)<br>4784=>Alling kloster (3176)<br>4785=>Grønbæk (367)<br>4785=>Alling kloster (3176)<br>17335=>Grønbæk (367)"
10,9.6856841,56.24978537,"4784 17335 17341 4625 4695 4696 4697 4698 17256 17257","4784=>Tvilum skov (3621)<br>17335=>Tvilum (3619)<br>17341=>Tvilum (3619)<br>4625=>Tvilum (3619)<br>4695=>Tvilum (3619)<br>4696=>Tvilum (3619)<br>4697=>Tvilum (3619)<br>4698=>Tvilum (3619)<br>17256=>Tvilum (3619)<br>17257=>Tvilum (3619)"
1,11.38602861,55.4416578,4643,"4643=>Gudum (369)"
3,8.46526917,56.51842152,"4396 4780 4803","4396=>Gudum (371)<br>4780=>Gudum kloster (3977)<br>4803=>Gudum kloster (3977)"
2,10.010862,56.940995,"17138 17164","17138=>Gunderup (376)<br>17164=>Gunderup (376)"
5,8.9961129,56.38726949,"17269 17270 17297 17322","17269=>Haderup (382)<br>17270=>Haderup (382)<br>17297=>Haderup (382)<br>17322=>Haderup (382)<br>17322=>Stavlund (1121)"
2,10.01192636,57.15092785,"4602 4860","4602=>Hammer (395)<br>4860=>Hammer (395)"
2,10.15273583,57.21287001,"4602 17302","4602=>Hellevad (434)<br>17302=>Hellevad (434)"
1,10.10414087,57.19017333,4602,"4602=>Ørum (872)"
1,8.92271094,56.71482529,4475,"4475=>Harre (403)"
1,8.86505426,56.72059777,4475,"4475=>Norup (841)"
1,8.27190085,56.54701561,4248,"4248=>Heldum (433)"
2,8.25956149,56.57005065,"4248 4935","4248=>Tørring (1219)<br>4935=>Tørring (1219)"
1,12.62152375,56.03879502,17302,"17302=>Kronborg Høj og Kvindbjærg Høje (1347)"
9,9.21313241,55.07592424,"4859 4876 17237 17308 17309 17310 17412 4762 4763","4859=>Hellevad (435)<br>4876=>Hellevad (435)<br>17237=>Hellevad (435)<br>17308=>Hellevad (435)<br>17309=>Hellevad (435)<br>17310=>Hellevad (435)<br>17412=>Hellevad (435)<br>4762=>Hellevad Lille-kirke (4495)<br>4763=>Hellevad Lille-kirke (4495)"
8,10.45547016,56.34646653,"4859 4261 4421 4423 4440 4898 4899 4900","4859=>Torsager (1220)<br>4261=>Torsager (1220)<br>4421=>Torsager (1220)<br>4423=>Torsager (1220)<br>4440=>Torsager (1220)<br>4898=>Torsager (1220)<br>4899=>Torsager (1220)<br>4900=>Torsager (1220)"
3,10.29415327,56.57375799,"4859 4262 4858","4859=>Udby (1269)<br>4262=>Udby (1269)<br>4858=>Udby (1269)"
1,8.96530936,54.94760919,4876,"4876=>Rørkjær (4482)"
1,10.16486773,57.26998552,4888,"4888=>Hellum (439)"
5,10.35363066,57.42561052,"4888 17415 4738 17376 17377","4888=>Skjærum (1055)<br>17415=>Skjærum (1055)<br>4738=>Skjærum (1055)<br>17376=>Skjærum (1055)<br>17377=>Skjærum (1055)"
1,8.96643749,56.59403702,17156,"17156=>Hem (443)"
10,9.23259893,55.8468133,"17156 17028 4301 17155 17398 17399 17400 17401 17419","17156=>Farre (3828)<br>17156=>Give (3829)<br>17028=>Donneruplund (3827)<br>4301=>Give (3829)<br>17155=>Give (3829)<br>17398=>Give (3829)<br>17399=>Give (3829)<br>17400=>Give (3829)<br>17401=>Give (3829)<br>17419=>Give (3829)"
5,8.95267034,56.14219771,"17049 17050 17051 17159 4832","17049=>Herning (446)<br>17050=>Herning (446)<br>17051=>Herning (446)<br>17159=>Herning (446)<br>4832=>Herningsholm (4628)"
2,10.53678096,55.28560022,"17049 4175","17049=>Søllinge (2147)<br>4175=>Søllinge (2147)"
1,8.6812699,57.05416077,17050,"17050=>Tved (1257)"
6,9.737277,55.892376,"17051 4334 17052 4266 4285 4691","17051=>Tamdrup (3738)<br>4334=>Tamdrup (3738)<br>17052=>Tamdrup (3738)<br>4266=>Tamdrup (3738)<br>4285=>Tamdrup (3738)<br>4691=>Tamdrup (3738)"
2,9.24202741,55.77058218,"17159 17158","17159=>Lindeballe (3865)<br>17158=>Lindeballe (3865)"
3,10.61029428,55.28111097,"4620 4621 17220","4620=>Herrested (447)<br>4621=>Herrested (447)<br>17220=>Herrested (447)"
1,8.73479715,57.01500974,4646,"4646=>Hillerslev (459)"
2,9.99749113,57.45913657,"4879 4970","4879=>Hjørring (469)<br>4970=>Vandsted bakker (2178)"
4,10.46058464,57.36707857,"4879 4700 4967 4845","4879=>Understed (2269)<br>4700=>Understed (2269)<br>4967=>Understed (2269)<br>4845=>Vrangbæk (2270)"
1,9.982402,57.462549,17378,"17378=>Hjørring (471)"
1,10.618973,55.874733,4411,"4411=>Hjortholm (473)"
11,10.57176875,55.84903122,"4411 4360 4380 4381 4382 4383 4399 4413 4414 4422 17077","4411=>Onsbjærg (1576)<br>4360=>Onsbjærg (1576)<br>4380=>Onsbjærg (1576)<br>4381=>Onsbjærg (1576)<br>4382=>Onsbjærg (1576)<br>4383=>Onsbjærg (1576)<br>4399=>Onsbjærg (1576)<br>4413=>Onsbjærg (1576)<br>4414=>Onsbjærg (1576)<br>4422=>Onsbjærg (1576)<br>17077=>Onsbjærg (1576)"
2,9.54388431,56.3380454,17102,"17102=>Højbjærg (478)<br>17102=>Palstrup (3174)"
9,9.66825625,54.88991599,"17102 17021 17022 17023 17024 17025 17026 17218 17351","17102=>Broager (4538)<br>17021=>Broager (4538)<br>17022=>Broager (4538)<br>17023=>Broager (4538)<br>17024=>Broager (4538)<br>17025=>Broager (4538)<br>17026=>Broager (4538)<br>17218=>Broager (4538)<br>17351=>Broager (4538)"
2,9.54601738,55.7627968,"4830 4675","4830=>Højgård (485)<br>4675=>Grejs (3803)"
5,9.41612043,55.75406825,"4830 17422 4156 17420 17421","4830=>Jelling høje (3883)<br>17422=>Jelling (3882)<br>4156=>Jelling (3882)<br>17420=>Jelling (3882)<br>17421=>Jelling (3882)"
3,12.4383224,55.28009782,"4210 4211 17198","4210=>Højrup (488)<br>4211=>Højrup (488)<br>17198=>Højrup (488)"
2,8.99217015,55.22956772,"17224 17225","17224=>Højrup (491)<br>17225=>Højrup (491)"
2,10.30030868,56.55153665,"4271 4262","4271=>Holbæk (496)<br>4262=>Holbækgård (3343)"
2,10.49370528,55.35536226,"4410 4861","4410=>Hollufgård (497)<br>4861=>Fravde (1904)"
1,10.36660623,55.36615198,4410,"4410=>Hjallese (4576)"
2,9.40682962,56.55223769,17117,"17117=>Holmgård (503)<br>17117=>Skals (3061)"
1,9.39024935,56.57867744,17117,"17117=>Låstrup (692)"
4,8.98445405,56.73839505,"17117 4426 4427 17116","17117=>Tøndering (2950)<br>4426=>Tøndering (2950)<br>4427=>Tøndering (2950)<br>17116=>Tøndering (2950)"
6,8.53207921,55.72494883,"4477 4446 4612 4613 17065 17158","4477=>Horn (511)<br>4446=>Horne (516)<br>4612=>Horne (516)<br>4613=>Horne (516)<br>17065=>Horne (516)<br>17158=>Horne (516)"
5,8.362999,56.86183,"4446 4197 4228 4337 4880","4446=>Hvidbjærg (559)<br>4197=>Hvidbjærg (559)<br>4228=>Hvidbjærg (559)<br>4337=>Hvidbjærg (559)<br>4880=>Hvidbjærg (559)"
1,8.52851154,56.64886781,4446,"4446=>Barslev (2535)"
1,10.19824035,56.41384351,4680,"4680=>Hørning (517)"
2,10.26879621,56.35776556,"4680 4747","4680=>Karlby (596)<br>4747=>Krogsnbæk. Sonderhald (3388)"
2,9.55584445,55.75117948,"4302 17397","4302=>Hornstrup (519)<br>17397=>Hornstrup (519)"
4,9.89827224,54.91483641,"17042 17226 17227 17228","17042=>Hørup (527)<br>17226=>Hørup (527)<br>17227=>Hørup (527)<br>17228=>Hørup (527)"
11,9.9843203,56.65025328,"4447 4387 4775 4778 4915 4916 4801 4799 4800 17332","4447=>Hov (534)<br>4447=>Mariager (768)<br>4387=>Mariager (768)<br>4775=>Mariager (768)<br>4778=>Mariager (768)<br>4915=>Mariager (768)<br>4916=>Mariager (768)<br>4801=>Mariager Kloster (4648)<br>4799=>Mariager Kloster (4648)<br>4800=>Mariager Kloster (4648)<br>17332=>Mariager Kloster (4648)"
1,8.50628858,56.92882865,17083,"17083=>Hundborg (546)"
6,8.71941953,55.436327,"4416 4826 4827 4828","4416=>Hunderup (547)<br>4826=>Kjærgård (625)<br>4826=>Herredsbjærg (4348)<br>4827=>Kjærgård (625)<br>4827=>Herredsbjærg (4348)<br>4828=>Herredsbjærg (4348)"
2,9.85700048,55.37125621,4342,"4342=>Husby (553)<br>4342=>Sønder-Åby (2003)"
3,8.17656268,56.27879324,"4269 17016 4518","4269=>Husby (554)<br>17016=>Husby (554)<br>4518=>Skårbjærg (4097)"
5,9.58869625,57.06335248,"17016 4807 17176 4509 17345","17016=>Hvolgård (4662)<br>4807=>Oksholm (2420)<br>17176=>Øland (851)<br>4509=>Oksholm (2420)<br>17345=>Hvolgård (4662)"
2,8.52895848,56.60646432,"4337 4945","4337=>Ottesund (2547)<br>4945=>Serup (1011)"
1,8.223473,56.59343256,17190,"17190=>Hygum (568)"
8,10.31667047,56.31261766,"17190 4487 4488 17338 4315 17191 17390","17190=>Hornslet (3470)<br>4487=>Krejbjærg (674)<br>4488=>Krejbjærg (674)<br>17338=>Rosenholm (3468)<br>17338=>Hornslet (3470)<br>4315=>Hornslet (3470)<br>17191=>Hornslet (3470)<br>17390=>Hornslet (3470)"
6,9.71411564,57.31273827,"4812 4480 4481 4482 4483 17134","4812=>Ingstrup (576)<br>4480=>Kjetrup (634)<br>4481=>Kjetrup (634)<br>4482=>Kjetrup (634)<br>4483=>Kjetrup (634)<br>17134=>Kjetrup (634)"
2,11.29584204,55.61003819,"4318 4589","4318=>Jordløse (586)<br>4589=>Jordløse (586)"
2,11.21559751,55.61861785,"4589 4300","4589=>Udby (1266)<br>4300=>Udby (1266)"
2,10.15086107,55.2019244,"4352 4599","4352=>Jordløse (587)<br>4599=>Jordløse (587)"
3,11.09581415,55.68344305,"4772 4773 17300","4772=>Kalundborg (590)<br>4773=>Kalundborg (590)<br>17300=>Kalundborg Kirke (1465)"
1,12.16277647,55.00013266,4377,"4377=>Kalvhave (591)"
9,8.31670931,56.75720487,"4804 4843 4168 4965 4966 17304 17331 17383","4804=>Kappel (594)<br>4804=>Vestervig kloster (2521)<br>4843=>Randrup (924)<br>4168=>Vestervig (2520)<br>4965=>Vestervig (2520)<br>4966=>Vestervig (2520)<br>17304=>Vestervig (2520)<br>17331=>Vestervig (2520)<br>17383=>Vestervig (2520)"
2,10.40375545,57.36109528,"4558 17415","4558=>Karup (600)<br>17415=>Karup (600)"
3,10.43807204,57.31823044,"4558 4665 4735","4558=>Volstrup (1332)<br>4665=>Volstrup (1332)<br>4735=>Volstrup (1332)"
2,9.17347087,56.31082534,"17320 17417","17320=>Karup (601)<br>17417=>Karup (601)"
1,10.15333015,56.64244951,4733,"4733=>Kastbjærg (605)"
2,10.14363148,56.67328465,"4733 4926","4733=>Vindblæs (1313)<br>4926=>Vindblæs (1313)"
6,10.24204167,56.66137113,"4733 4527 17074 17336","4733=>Udbyneder (3261)<br>4527=>Klatrup (638)<br>4527=>Overgård. Udbynedre (3260)<br>4527=>Udbyovre (3262)<br>17074=>Udbyneder (3261)<br>17336=>Udbyneder (3261)"
5,10.53100515,55.11410639,"4161 4293 4294","4161=>Kirkeby (613)<br>4293=>Kirkeby (613)<br>4293=>Klokkemae (2036)<br>4294=>Kirkeby (613)<br>4294=>Klokkemae (2036)"
2,10.06132516,56.60052834,"4229 4359","4229=>Kjærby (620)<br>4359=>Kjærby (620)"
6,10.16468114,56.36638954,"4815 4537 4570 4571 4572 4862","4815=>Klavsholm (641)<br>4537=>Voldum (3329)<br>4570=>Voldum (3329)<br>4571=>Voldum (3329)<br>4572=>Voldum (3329)<br>4862=>Voldum (3329)"
2,10.21821006,56.38544454,"4815 4862","4815=>Mygind (3386)<br>4862=>Mygind (3386)"
7,9.32137834,55.77096642,"4484 4485 4311 4172 4182 4397 17157","4484=>Klavsholm (642)<br>4485=>Klavsholm (642)<br>4311=>Refstrup (3860)<br>4172=>Gadbjærg (3858)<br>4182=>Gadbjærg (3858)<br>4397=>Gadbjærg (3858)<br>17157=>Gadbjærg (3858)"
1,9.63609942,56.59030387,17142,"17142=>Klejtrup (643)"
3,9.4850338,57.07415465,"4798 4807 4818","4798=>Kokkedal (654)<br>4807=>Kokkedal (654)<br>4818=>Kokkedal (654)"
5,10.35104153,57.24032431,"4798 4818 4187 4348 4817","4798=>Voergård (2286)<br>4818=>Voergård (2286)<br>4187=>Voer (2285)<br>4348=>Voer (2285)<br>4817=>Voergård (2286)"
4,9.53743676,56.96224749,"4798 4797 4595","4798=>Sebber kloster (2879)<br>4797=>Munkegård (2877)<br>4797=>Sebber kloster (2879)<br>4595=>Nikolajbjærg (2878)"
2,10.55570458,55.7971772,"4439 4592","4439=>Kolby (655)<br>4592=>Kolby Kås (1568)"
2,9.49149073,55.49190407,"17119 17120","17119=>Kolding (656)<br>17120=>Kolding (656)"
1,9.29617367,57.09917817,17033,"17033=>Kollerup (657)"
1,9.52005422,56.21760026,4324,"4324=>Sejling (3208)"
1,10.72463304,55.19528098,4296,"4296=>Langå (680)"
1,10.200934,56.075724,17253,"17253=>Langballe (681)"
2,10.16351111,56.06922865,"17253 4682","17253=>Mårslet (770)<br>4682=>Mårslet (770)"
2,8.73269709,56.59971085,"4442 4790","4442=>Lime (699)<br>4790=>Lime (699)"
2,9.66364638,56.22223224,"4265 17341","4265=>Allinggård (3198)<br>17341=>Svostrup (3201)"
3,8.61786553,55.80774922,"17151 4218 17006","17151=>Lindbjærggård (706)<br>4218=>Ølgod (4255)<br>17006=>Ølgod (4255)"
4,10.15055444,55.97882035,"17151 17152 4333 17150","17151=>Odder (3558)<br>17152=>Odder (3558)<br>4333=>Odder (3558)<br>17150=>Odder (3558)"
3,10.01075277,56.88382407,"4491 4167 17392","4491=>Lindenborg (708)<br>4167=>Blendstrup (2740)<br>17392=>Blidekilde (2741)"
2,8.36878247,55.75899223,"4257 4393","4257=>Lunde (728)<br>4393=>Lunde (728)"
1,8.340986,55.72055891,4257,"4257=>Ovtrup (903)"
2,8.64862908,55.69758148,"4257 16970","4257=>Hodde (4247)<br>16970=>Hodde (4247)"
1,10.599293,55.054607,4839,"4839=>Lunden (729)"
1,9.97972502,56.31578728,4911,"4911=>Lyngå (745)"
2,10.03894551,56.84529275,"4373 4374","4373=>Lyngby (748)<br>4374=>Lyngby (748)"
6,10.74455972,56.36650725,"4553 4564 4565 17211 4554","4553=>Lyngby (751)<br>4553=>Fævejle (3431)<br>4564=>Lyngby (751)<br>4565=>Lyngby (751)<br>17211=>Lyngby (751)<br>4554=>Obdrupgården (3432)"
1,9.23779608,56.9188957,4196,"4196=>Malle (765)"
3,11.50911616,54.77425467,"4387 4428 4776","4387=>Maribo (1806)<br>4428=>Maribo (1806)<br>4776=>Maribo (1806)"
13,9.88838246,56.83713849,"4915 17140 17141 4907 4869 4949 4950 4951 4952 4953 4954 17385 17386","4915=>Skjørping (2748)<br>17140=>Sejlstrup (1007)<br>17141=>Sejlstrup (1007)<br>4907=>Skjørping (2748)<br>4869=>Skjørping (2748)<br>4949=>Skjørping (2748)<br>4950=>Skjørping (2748)<br>4951=>Skjørping (2748)<br>4952=>Skjørping (2748)<br>4953=>Skjørping (2748)<br>4954=>Skjørping (2748)<br>17385=>Skjørping (2748)<br>17386=>Skjørping (2748)"
1,10.12903027,56.49923012,4494,"4494=>Mejlby (779)"
2,10.21339439,56.3006803,4287,"4287=>Mejlby (780)<br>4287=>Krannestrup (3486)"
2,9.06787969,56.69700668,"17075 4875","17075=>Mogenstrup (786)<br>4875=>Grinderslev (2916)"
1,9.12831637,56.70268186,17075,"17075=>Tise (1190)"
4,8.18988814,56.30624905,"17075 4518 4331 4332","17075=>Sønder-Nissum (4103)<br>4518=>Sønder-Nissum (4103)<br>4331=>Torsminde (4104)<br>4332=>Torsminde (4104)"
2,8.24156208,56.26451832,"17075 4557","17075=>Staby (4107)<br>4557=>Staby (4107)"
1,8.71886485,56.78872115,4867,"4867=>Mollerup (788)"
1,8.73972427,56.17590402,4183,"4183=>Møltrup (792)"
4,8.90706651,56.13391485,"4183 4230 17005 17408","4183=>Snejbjærg (4088)<br>4230=>Foenvad (4085)<br>17005=>Snejbjærg (4088)<br>17408=>Snejbjærg (4088)"
1,11.50169992,55.65009951,4877,"4877=>Mørke (795)"
1,11.79638975,55.6060789,4877,"4877=>Soderup (1475)"
2,11.58423561,55.60476143,"4877 4932","4877=>Kongsdal (1482)<br>4932=>Ondløse (1483)"
1,11.40895093,55.6938908,4877,"4877=>Hjembæk (1494)"
3,9.73267011,56.02420768,"17343 4795","17343=>Mos sø (797)<br>4795=>Ring kloster (3661)<br>4795=>Voer kloster mølle (3663)"
11,10.55290497,55.96474501,"4340 4587 4588 4593 4659 4660 16993 16994 16999 17028 17197","4340=>Nordby (825)<br>4587=>Nordby (825)<br>4588=>Nordby (825)<br>4593=>Nordby (825)<br>4659=>Nordby (825)<br>4660=>Nordby (825)<br>16993=>Nordby (825)<br>16994=>Nordby (825)<br>16999=>Nordby (825)<br>17028=>Nordby (825)<br>17197=>Nordby (825)"
2,10.43464686,55.95250277,"4593 4369","4593=>Tunø (3553)<br>4369=>Tunø (3553)"
1,9.73562834,57.03783474,17087,"17087=>Nørholm (829)"
1,9.7379295,56.99928983,17087,"17087=>Sønderholm (2682)"
2,8.85868214,56.7945817,"4299 4505","4299=>Nykjøbing (844)<br>4505=>Nykjøbing (844)"
3,8.90108595,56.76276591,"4299 4298 17034","4299=>Sæby (991)<br>4298=>Sæby (991)<br>17034=>Sæby (991)"
14,10.39005511,55.39681993,"4170 4171 4311 4329 4345 4346 4388 4389 4408 4430 4508 4805 4806","4170=>Odense (850)<br>4171=>Odense (850)<br>4311=>Odense (850)<br>4329=>Odense (850)<br>4329=>Klokkedybet (1873)<br>4345=>Odense (850)<br>4346=>Odense (850)<br>4388=>Odense (850)<br>4389=>Odense (850)<br>4408=>Odense (850)<br>4430=>Odense (850)<br>4508=>Odense (850)<br>4805=>Odense (850)<br>4806=>Odense (850)"
3,12.55338778,55.68488326,"4171 4300 4263","4171=>Kjøbenhavn (1341)<br>4300=>Kjøbenhavn (1341)<br>4263=>Kjøbenhavn (1341)"
1,8.97932374,55.35278211,17176,"17176=>Harreby (4411)"
1,10.13932658,56.23160484,4857,"4857=>Ølsted (855)"
2,9.76072121,55.80959324,"17259 17396","17259=>Ølsted (856)<br>17396=>Ølsted (856)"
1,9.62310297,56.48222481,4223,"4223=>Ørum (875)"
1,9.75427647,56.4540764,4214,"4214=>Skjern (1060)"
1,10.3149813,56.40971311,4604,"4604=>Ovstrup (898)"
2,10.27546082,56.41047644,"4604 4603","4604=>Vester-Alling (3379)<br>4603=>Vester-Alling (3379)"
6,9.30973468,55.61507191,"4525 17161 17162 17163 17346 17172","4525=>Ovstrup (900)<br>17161=>Egtved (3899)<br>17162=>Egtved (3899)<br>17163=>Egtved (3899)<br>17346=>Egtved (3899)<br>17172=>Vollund (3911)"
5,9.40066468,55.65757088,"4525 4538 17029 17160","4525=>Tudvad (3893)<br>4538=>Yding (1340)<br>17029=>Ødsted (3889)<br>17029=>Ammidsbøl (3894)<br>17160=>Ødsted (3889)"
1,8.66720039,56.77254886,17200,"17200=>Ovtrup (901)"
4,9.66958207,57.21084237,"4791 4566 4193 17112","4791=>Panderup (905)<br>4566=>Kvorup (2376)<br>4193=>Jetsmark (2375)<br>17112=>Jetsmark (2375)"
2,10.30975213,57.61903603,"16970 17032","16970=>Råbjærg (916)<br>17032=>Råbjærg (916)"
1,10.22994745,56.60811234,17389,"17389=>Råby (917)"
3,9.9973083,56.57504773,"4260 4512 4460","4260=>Randrup (927)<br>4512=>Randrup (927)<br>4460=>Dyrby (4647)"
1,9.94035949,56.60150184,4260,"4260=>Svendstrup (1154)"
1,9.92856546,55.77075429,4687,"4687=>Rårup (928)"
2,8.5265426,56.49479876,4280,"4280=>Resen (940)<br>4280=>Resenborg (4644)"
6,8.77858359,55.33618399,"4250 4251 4253 4390 16974 16975","4250=>Ribe (945)<br>4251=>Ribe (945)<br>4253=>Ribe (945)<br>4390=>Ribe (945)<br>16974=>Ribe (945)<br>16975=>Ribe (945)"
1,10.39646714,54.84003669,17124,"17124=>Rise (955)"
1,9.93019729,56.03898678,17124,"17124=>Skanderborg (1035)"
1,8.810434,56.6441,4727,"4727=>Rødding (958)"
1,8.7024578,56.20224399,17021,"17021=>Røddinggård (961)"
7,8.31799745,56.11248916,"4943 4499 4501 4502 4503 4500 17186","4943=>Røgind (966)<br>4499=>No (4133)<br>4501=>No (4133)<br>4502=>No (4133)<br>4503=>No (4133)<br>4500=>No (4133)<br>17186=>No (4133)"
1,8.93362743,56.53635477,4284,"4284=>Rønbjærg (969)"
3,8.77525835,56.43441356,"4284 17347","4284=>Rydhave (4043)<br>17347=>Ryde (983)<br>17347=>Rydhave (4043)"
2,10.12774216,56.3615738,"4686 17251","4686=>Rude (975)<br>17251=>Rude (975)"
7,9.7076326,56.07812985,"4191 4556 4959 4960 4961 4795","4191=>Ry (979)<br>4556=>Ry (979)<br>4556=>Emborg (3644)<br>4959=>Ry (979)<br>4960=>Ry (979)<br>4961=>Ry (979)<br>4795=>Emborg kloster (3645)"
11,10.60926315,55.39837118,"17356 17357 4813 4834 4835 4836 4837 4838 17123","17356=>Rynkeby (985)<br>17356=>Skovsbo (1934)<br>17357=>Rynkeby (985)<br>17357=>Skovsbo (1934)<br>4813=>Skovsbo (1934)<br>4834=>Skovsbo (1934)<br>4835=>Skovsbo (1934)<br>4836=>Skovsbo (1934)<br>4837=>Skovsbo (1934)<br>4838=>Skovsbo (1934)<br>17123=>Skovsbo (1934)"
2,11.30667568,55.54653956,"4208 4690","4208=>Sæby (990)<br>4690=>Sæby (990)"
1,9.242163,56.762627,17034,"17034=>Grynderup (2805)"
1,11.94331825,55.70292663,17318,"17318=>Sæbygård (993)"
1,10.33785405,55.22466686,4944,"4944=>Salling (1001)"
1,9.89119526,57.415178,4729,"4729=>Sejlstrup (1006)"
9,9.97425461,56.82201514,"17140 4692 4693 4732 17245 17246 17247 17248","17140=>Torup (1226)<br>17140=>Tulsted (2736)<br>4692=>Torup (1226)<br>4693=>Torup (1226)<br>4732=>Torup (1226)<br>17245=>Torup (1226)<br>17246=>Torup (1226)<br>17247=>Torup (1226)<br>17248=>Torup (1226)"
1,10.01132401,56.82231318,4162,"4162=>Siem (1013)"
1,9.85202605,57.47912237,4234,"4234=>Skallerup (1033)"
5,9.74490166,56.20847193,"4202 4375 4946 4947 17418","4202=>Skanderup (1037)<br>4375=>Skanderup (1037)<br>4946=>Skanderup (1037)<br>4947=>Skanderup (1037)<br>17418=>Skanderup (1037)"
1,9.85556339,56.25716427,17418,"17418=>Hammel (3624)"
2,8.76125305,55.1559085,17350,"17350=>Skjærbæk (1053)<br>17350=>Skjærbækgård (1054)"
12,8.33953781,56.29960833,"4320 4516 4517 4783 17184 17185 4493 17179","4320=>Skjærum (1056)<br>4516=>Skjærum (1056)<br>4516=>Nørre-Vosborg (4111)<br>4517=>Skjærum (1056)<br>4517=>Nørre-Vosborg (4111)<br>4783=>Lystlunds kapel (4109)<br>4783=>Skjærum kirke og bro (4112)<br>4783=>Ulfborg (4114)<br>17184=>Nørre-Vosborg (4111)<br>17185=>Nørre-Vosborg (4111)<br>4493=>Lystlund (4634)<br>17179=>Lystlund (4634)"
1,8.42207159,56.31947279,4320,"4320=>Stenumgård (4119)"
1,8.49550545,55.95083856,4400,"4400=>Skjern (1061)"
5,10.30400662,56.26357453,"4312 4653 4748 4749 4904","4312=>Skjødstrup (1063)<br>4653=>Skjødstrup (1063)<br>4748=>Skjødstrup (1063)<br>4749=>Skjødstrup (1063)<br>4904=>Skjødstrup (1063)"
1,10.27460959,56.36415731,4562,"4562=>Skjørring (1065)"
1,9.58599467,56.8245858,4496,"4496=>Mosbæk (2790)"
1,10.35145453,55.48953687,17070,"17070=>Lunde Hede, Skive Landsogn (1947)"
1,9.85612331,56.85858438,17139,"17139=>Sørup (1114)"
1,9.54053866,55.2406819,4655,"4655=>Starup (1120)"
2,12.11865563,55.08975669,"4656 4542","4656=>Stavreby (1122)<br>4542=>Sundstrup (1148)"
1,9.99088175,56.05949507,4543,"4543=>Stilling sø (1133)"
5,10.67239199,55.53421698,"4391 4624 17240 17241 17293","4391=>Stubberup (1141)<br>4624=>Stubberup (1141)<br>17240=>Stubberup (1141)<br>17241=>Stubberup (1141)<br>17293=>Stubberup (1141)"
6,9.84559872,56.01132805,"4173 4221 4334 4354 4355 4541","4173=>Tåning (1164)<br>4221=>Tåning (1164)<br>4334=>Tåning (1164)<br>4354=>Tåning (1164)<br>4355=>Tåning (1164)<br>4541=>Tåning (1164)"
1,9.928916,56.040284,4221,"4221=>Vrold (3572)"
8,9.8614429,55.97300374,"4334 4623 4683 4684 4726 4847 4848 4850","4334=>Ovsted. Voer (3692)<br>4623=>Ovsted. Voer (3692)<br>4683=>Ovsted. Voer (3692)<br>4684=>Ovsted. Voer (3692)<br>4726=>Ovsted. Voer (3692)<br>4847=>Ovsted. Voer (3692)<br>4848=>Ovsted. Voer (3692)<br>4850=>Ovsted. Voer (3692)"
3,10.11557169,57.38471485,"4378 4662 4968","4378=>Tårs (1166)<br>4662=>Tårs (1166)<br>4968=>Tårs (1166)"
2,9.27580365,56.53917503,"4694 17152","4694=>Tårup (1174)<br>17152=>Tårupgård (1175)"
1,11.88288025,55.32946632,17052,"17052=>Testrup (1182)"
7,8.31251275,56.05118957,"17052 17089 17099 17091 17092 17180 17053","17052=>Velling (1305)<br>17089=>Velling (1305)<br>17099=>Velling (1305)<br>17091=>Velling (1305)<br>17092=>Velling (1305)<br>17180=>Velling (1305)<br>17053=>Velling (1305)"
1,9.50253441,56.72201154,4788,"4788=>Testrupgård (1183)"
2,9.73346415,56.33971874,"4159 17056","4159=>Tirslund (1186)<br>17056=>Åbøl (4419)"
3,10.03168556,56.77982117,"4194 4522 4810","4194=>Tisted (1192)<br>4522=>Tisted (1192)<br>4810=>Tisted (1192)"
5,9.90701839,57.30294273,"4277 4304 4526","4277=>Tolstrup (1200)<br>4304=>Tolstrup (1200)<br>4304=>Hjermitslevgård (2332)<br>4526=>Tolstrup (1200)<br>4526=>Tømmerby (1205)"
1,9.94420384,57.27277164,4526,"4526=>Vester-Brønderslev (2339)"
1,9.6615436,55.98937886,17214,"17214=>Tønning (1208)"
2,9.66768366,55.97080928,"17214 4270","17214=>Træden (3670)<br>4270=>Træden (3670)"
1,9.48542877,55.85532153,17422,"17422=>Tørring (1218)"
2,10.26903861,56.24806097,"4898 17030","4898=>Hjortshøj (3475)<br>17030=>Hjortshøj (3475)"
6,10.64140852,55.86326329,"16972 4322 4370 4632 4633 4767","16972=>Torup (1230)<br>4322=>Besser (1583)<br>4370=>Besser (1583)<br>4632=>Besser (1583)<br>4633=>Besser (1583)<br>4767=>Besser (1583)"
5,9.5521637,55.71165991,"16972 4349 17129 17395 4246","16972=>Vejle (1300)<br>4349=>Vejle (1300)<br>17129=>Vejle (1300)<br>17395=>Vejle (1300)<br>4246=>Vejle å (3756)"
14,10.59139922,55.83257606,"4264 4394 4395 4407 4657 4658 4766 4811 4383 4884 4384 4881 4882 4883","4264=>Tranbjærg (1242)<br>4394=>Tranbjærg (1242)<br>4395=>Tranbjærg (1242)<br>4407=>Tranbjærg (1242)<br>4657=>Tranbjærg (1242)<br>4658=>Tranbjærg (1242)<br>4766=>Tranbjærg (1242)<br>4811=>Tranbjærg (1242)<br>4383=>Pilemark (4613)<br>4884=>Pilemark (4613)<br>4384=>Pilemark (4613)<br>4881=>Pilemark (4613)<br>4882=>Pilemark (4613)<br>4883=>Pilemark (4613)"
7,10.10813829,56.15817284,"17127 17147 17148","17127=>True (1250)<br>17127=>Brabrand (3488)<br>17147=>True (1250)<br>17147=>Brabrand (3488)<br>17148=>True (1250)<br>17148=>Brabrand (3488)<br>17148=>Yderup (3490)"
1,8.79073935,55.41670096,17127,"17127=>Gredstedbro (4350)"
1,10.43906478,56.19556484,4661,"4661=>Tved (1258)"
1,9.19196978,55.87934678,17041,"17041=>Ullerup (1273)"
3,8.48820299,56.97051219,"17135 17136 17137","17135=>Vang (1286)<br>17136=>Vang (1286)<br>17137=>Vang (1286)"
6,9.88182547,56.11098135,"4846 4534 4535 4327 4782","4846=>Vange (1290)<br>4534=>Nørre-Vissing (3597)<br>4535=>Nørre-Vissing (3597)<br>4327=>Veng (3599)<br>4327=>Veng sø (3600)<br>4782=>Vengegård (3601)"
1,8.48301381,55.6233681,4468,"4468=>Varde (1293)"
1,9.36239271,55.19519696,17177,"17177=>Vedsted (1295)"
2,9.82346994,55.50641302,"4701 17243","4701=>Vejlby (1297)<br>17243=>Vejlby (1297)"
1,10.20840085,56.19924869,4213,"4213=>Vejlby (1299)"
1,8.58734506,56.4491865,4930,"4930=>Vejrum (1302)"
2,9.53091668,55.4024646,"17061 17173","17061=>Vejstrup (1304)<br>17173=>Vejstrup (1304)"
14,8.86845772,56.45666669,"17053 17054 17164 4885 17055 4323 4356 4409 4524 17096","17053=>Sevel (4046)<br>17053=>Stubbergård (4051)<br>17054=>Sevel (4046)<br>17054=>Stubbergård (4051)<br>17164=>Sevel (4046)<br>4885=>Sevel (4046)<br>17055=>Sevel (4046)<br>4323=>Stubbergårds sø (4048)<br>4323=>Trandum (4049)<br>4356=>Trandum (4049)<br>4409=>Trandum (4049)<br>4524=>Trandum (4049)<br>4524=>Stubbergård (4051)<br>17096=>Trandum (4049)"
1,9.85225898,55.43914396,4531,"4531=>Viby (1308)"
4,9.54910428,55.55465867,"4908 17406 4909","4908=>Vilstrup (1310)<br>4908=>Landerupgård (3941)<br>17406=>Vilstrup (1310)<br>4909=>Landerupgård (3941)"
1,10.7345181,55.30983896,4924,"4924=>Vinding (1315)"
1,8.65614946,56.27433361,17409,"17409=>Vinding (1318)"
5,9.49686839,56.41942697,"4353 4705 17073 17106 4884","4353=>Vinkel (1320)<br>4705=>Vinkel (1320)<br>17073=>Vinkel (1320)<br>17106=>Vinkel (1320)<br>4884=>Odsgård (3137)"
2,10.14753869,56.73736302,"4801 17125","4801=>Visborggård (1321)<br>17125=>Visborggård (1321)"
4,9.97517409,56.69650549,"4801 4510 4799 4800","4801=>Ovegård (2764)<br>4510=>Oplands kirkegård (2762)<br>4799=>Ovegård (2764)<br>4800=>Ovegård (2764)"
2,11.06625641,55.69549401,"4734 4685","4734=>Vollerup (1328)<br>4685=>Raklev (1524)"
1,9.41643927,56.75901943,4431,"4431=>Vonsild (1336)"
1,12.57343889,56.01610814,4787,"4787=>Helsingør (1344)"
3,12.41140548,55.96966209,"4371 4630 16968","4371=>Asminderød (1352)<br>4630=>Asminderød (1352)<br>16968=>Asminderød (1352)"
1,12.43071196,55.84474055,4611,"4611=>Birkerød (1354)"
1,12.10579292,56.04808126,4872,"4872=>Helene kilde (1365)"
11,11.77232596,54.90879,"4872 4200 4201 4569 4894 4895 4896 4897 17208 17209 17371","4872=>Kippinge (1847)<br>4200=>Kippinge (1847)<br>4201=>Kippinge (1847)<br>4569=>Kippinge (1847)<br>4894=>Kippinge (1847)<br>4895=>Kippinge (1847)<br>4896=>Kippinge (1847)<br>4897=>Kippinge (1847)<br>17208=>Kippinge (1847)<br>17209=>Kippinge (1847)<br>17371=>Kippinge (1847)"
1,12.17453892,55.98000388,17292,"17292=>Annisse (1368)"
1,11.97235956,55.99543979,4207,"4207=>Melby (1373)"
1,12.09151197,55.82302797,4929,"4929=>Oppesundby (1378)"
2,12.01929904,55.7797722,"4931 17362","4931=>Skuldelev (1389)<br>17362=>Skuldelev (1389)"
1,12.47764826,55.62848476,17122,"17122=>Hvidsted (1396)"
9,8.20005733,56.23337586,"17122 4436 16996 4437 4438 4435","17122=>Åbjærg (4142)<br>17122=>Vedersø (4143)<br>4436=>Vedersø (4143)<br>16996=>Åbjærg (4142)<br>4437=>Åbjærg (4142)<br>4437=>Vedersø (4143)<br>4438=>Åbjærg (4142)<br>4438=>Vedersø (4143)<br>4435=>Vedersø (4143)"
3,12.4697301,55.75088585,"4596 4597","4596=>Bagsværd (1398)<br>4596=>Gladsakse (1399)<br>4597=>Gladsakse (1399)"
1,12.42639583,55.73213889,4597,"4597=>Herlev (1400)"
1,12.50083367,55.80989088,4174,"4174=>Søllerød (1405)"
1,12.34943384,55.61383749,4648,"4648=>Ishøj (1411)"
1,12.24678687,55.68206385,4841,"4841=>Snubbekors (1414)"
1,12.32986845,55.75273489,4890,"4890=>Målev (1419)"
1,11.91814447,55.57810525,4567,"4567=>Særløse (1427)"
1,11.90265841,55.59897988,4567,"4567=>Kisserup (1431)"
1,12.18942557,55.62330206,4192,"4192=>Stærkende (1438)"
1,12.12774087,55.57020005,4192,"4192=>Snoldelev (1440)"
1,12.23006557,55.56957498,4240,"4240=>Karlslunde (1444)"
2,12.12336702,55.49732762,4305,"4305=>Højelse (1458)<br>4305=>Skjensved å (1461)"
1,11.77046667,55.6131776,4819,"4819=>Tølløsegård (1474)"
2,11.74732363,55.24435851,"4819 17273","4819=>Herlufsholm (1682)<br>17273=>Herlufsholm (1682)"
1,11.22814319,55.53878322,4641,"4641=>Gjørlev (1515)"
1,11.24466148,55.56329717,4626,"4626=>Bækkendrup (1516)"
1,11.20607472,55.51604821,4286,"4286=>Kirke-Helsinge (1517)"
2,11.56194704,55.44008678,"17325 4796","17325=>Sorø (1590)<br>4796=>Sorø kloster (1591)"
2,11.348981,55.402343,"4796 4842","4796=>Antvorskov (1633)<br>4842=>Anders kors (1632)"
1,11.55538777,55.45773482,4652,"4652=>Pedersborg (1594)"
1,11.61967591,55.38041327,4368,"4368=>Bråby (1596)"
1,11.62285912,55.46135507,4163,"4163=>Bjernede (1597)"
1,11.68626398,55.48709615,17182,"17182=>Håderup (1607)"
2,11.76838014,55.49068151,"4902 4903","4902=>Haraldsted skov (1616)<br>4903=>Sværtekilden (1620)"
1,11.88763585,55.48287387,4971,"4971=>Vigersted (1625)"
3,11.27076891,55.30099507,"4770 4771 4905","4770=>Boslunde (1653)<br>4771=>Boslunde (1653)<br>4905=>Boslunde (1653)"
2,11.34728641,55.28568455,4289,"4289=>Brud die (1661)<br>4289=>Egitslevmagle (1662)"
1,11.38019241,55.33994893,4840,"4840=>Skjørpinge (1664)"
1,11.48122466,55.27209893,4923,"4923=>Håslev (1667)"
2,11.58779896,55.23357245,"4725 4650","4725=>Marvede (1674)<br>4650=>Menstrup (1676)"
2,11.76354234,55.22707239,"17326 17363","17326=>Næstved (1685)<br>17363=>Næstved (1685)"
2,11.75351597,55.17756856,17326,"17326=>Vejlø (1730)<br>17326=>Gavnø (4563)"
1,10.17650943,55.53871987,17363,"17363=>Ejlers Kilde (1967)"
2,12.27916327,55.35511504,"4561 4645","4561=>Varpelev (1704)<br>4645=>Varpelev (1704)"
1,12.25534738,55.32953687,4645,"4645=>Hellested (1707)"
1,12.23240203,55.28386322,4730,"4730=>Smerup (1708)"
1,11.81749277,55.15569473,17274,"17274=>Vester-Egesborg (1732)"
1,12.28696514,54.9899554,4200,"4200=>Rødsten (1759)"
1,12.48500029,54.98462945,4980,"4980=>Møens klint (1768)"
2,15.14224058,55.13494406,"17181 17193","17181=>Svaneke (1777)<br>17193=>Svaneke (1777)"
2,8.1431204,55.55530123,"17181 4456","17181=>Oksby (4237)<br>4456=>Bredmose (4235)"
1,14.92711625,55.06815377,4406,"4406=>Åkirkeby (1779)"
1,14.80962319,55.16979401,4545,"4545=>Klemensker (1784)"
1,14.89564635,55.21257553,4514,"4514=>Rø (1786)"
2,14.97012857,55.20867683,"4555 4642","4555=>Gudhjem (1788)<br>4642=>Gudhjem (1788)"
1,11.03269913,54.77381812,17405,"17405=>Kappelagre (1807)"
9,9.60383483,55.63991829,"17405 4688 17235 17264 17265 17266 17403 17404 17110","17405=>Skjærup (3926)<br>4688=>Skjærup (3926)<br>17235=>Skjærup (3926)<br>17264=>Skjærup (3926)<br>17265=>Skjærup (3926)<br>17266=>Skjærup (3926)<br>17403=>Skjærup (3926)<br>17404=>Skjærup (3926)<br>17110=>Skjærup (3926)"
1,11.30504821,54.7960679,16967,"16967=>Ryde Kloster, nuværende Lyksborg Slot (1808)"
1,11.22367906,54.8490156,17327,"17327=>Halsted Kloster (1816)"
1,11.49583027,54.66855918,17029,"17029=>Errindlev (1820)"
4,11.38789884,54.73752308,"4272 17066 17079 17368","4272=>Tirsted (1825)<br>17066=>Tirsted (1825)<br>17079=>Tirsted (1825)<br>17368=>Tirsted (1825)"
6,9.13191071,56.58161849,"17079 4720 4721 4722 4723 17295","17079=>Sejstrup (2988)<br>4720=>Højslev (2987)<br>4721=>Højslev (2987)<br>4722=>Højslev (2987)<br>4723=>Højslev (2987)<br>17295=>Højslev (2987)"
1,11.93363804,54.87209201,4241,"4241=>Torkildstrup (1843)"
1,11.95792563,54.7421868,4718,"4718=>Hillestrup (1849)"
1,8.41956866,56.00107272,16995,"16995=>Dejbjærg (4160)"
1,9.73717456,55.50364711,4339,"4339=>Middelfart (1878)"
2,10.36139511,55.33936662,"4956 4957","4956=>Stenløse (1891)<br>4957=>Stenløse (1891)"
1,10.56795957,55.32034324,17133,"17133=>Rolfsted (1915)"
1,10.60946083,55.46615784,17388,"17388=>Dripkjelde (1923)"
1,9.2363639,56.69459991,17388,"17388=>Lovns (2823)"
1,10.55902232,55.46073616,17054,"17054=>Munkebo (1925)"
1,10.65688084,55.41812645,4316,"4316=>Revninge (1936)"
2,10.31436852,55.45333858,4288,"4288=>Allersø (1953)<br>4288=>Malm mose (1954)"
1,10.25894467,55.582823,16981,"16981=>Klinte Strand (1961)"
1,10.68597858,55.4965815,16981,"16981=>Hverringe (4584)"
4,10.14620854,55.53811757,"4676 17242 17372 17373","4676=>Guldbjærg (1965)<br>17242=>Guldbjærg (1965)<br>17372=>Guldbjærg (1965)<br>17373=>Guldbjærg (1965)"
1,10.15997114,55.47376268,17374,"17374=>Vigerslev (1971)"
2,10.0272562,55.41308723,4249,"4249=>Ærtholm (1985)<br>4249=>Rørup (1987)"
1,9.80011611,55.46035275,17328,"17328=>Gamborg Fjord (1995)"
2,9.82743558,55.4229237,"17328 4627","17328=>Føns (1998)<br>4627=>Føns (1998)"
1,9.96961782,55.33445127,4560,"4560=>Barløse (2007)"
2,10.00026428,55.15714245,"16969 17277","16969=>Helnæs (2022)<br>17277=>Helnæs (2022)"
2,10.68835643,55.04775457,"4238 4343","4238=>Turø (2051)<br>4343=>Turø (2051)"
1,10.59444938,55.00003092,4458,"4458=>Bryllese (2052)"
1,10.40267651,54.97718574,4638,"4638=>Drejø (2053)"
1,10.41947227,55.16426735,17048,"17048=>Krarup Kirke (2066)"
1,10.45413182,55.20170346,4942,"4942=>Herringe (2069)"
1,10.25009959,55.19426993,4506,"4506=>Ny Stenderup (2081)"
1,10.22554698,55.12626378,4598,"4598=>Svanninge (2086)"
1,10.70613926,55.15077443,17104,"17104=>Gudme (2092)"
3,10.48172023,55.2383892,"4295 4330","4295=>Boltinggård (2094)<br>4295=>Klokkelong (2096)<br>4330=>Klokkelong (2096)"
2,10.53161141,55.23721546,"17175 17278","17175=>Ryslinge (2105)<br>17278=>Ryslinge (2105)"
1,10.6878531,55.21758178,4600,"4600=>Svindinge (2112)"
1,10.7253852,55.12143719,17301,"17301=>Ovre (2118)"
1,10.67288794,55.15462415,17219,"17219=>Gudbjærg (2124)"
1,10.70372579,55.36192302,4710,"4710=>Avnslev (2130)"
1,10.66712905,55.38197543,4639,"4639=>Flødstrup (2133)"
1,10.6106881,55.25116917,4608,"4608=>Ellested (2140)"
1,10.57365382,55.28504925,4175,"4175=>Hellerup (2150)"
1,10.93322495,55.15280828,4459,"4459=>Dybsig (2166)"
1,10.72419846,54.86456408,4769,"4769=>Lindelse (2169)"
1,10.69292709,54.83078735,4768,"4768=>Humle (2170)"
3,10.4799494,57.47709661,"4671 4672 17232","4671=>Elling (2205)<br>4672=>Elling (2205)<br>17232=>Elling (2205)"
1,10.31384379,57.48321395,17375,"17375=>Tolne (2217)"
2,10.29659671,57.40928505,"17279 17294","17279=>Lendum (2227)<br>17294=>Lendum (2227)"
1,10.13688564,57.42516618,4969,"4969=>Ugilt (2242)"
1,9.81183968,57.42296389,17171,"17171=>Jennikes Dam (2266)"
8,9.050939,55.28936841,"17171 17093 17172 4674 17056 17094 17170 17425","17171=>Gram (4415)<br>17093=>Gram (4415)<br>17172=>Gram (4415)<br>4674=>Gram (4415)<br>17056=>Gram (4415)<br>17094=>Gram (4415)<br>17170=>Gram (4415)<br>17425=>Gram (4415)"
6,9.83422482,57.36607902,"4792 4793 4794 4310 4392 4420","4792=>Børglum kloster (2320)<br>4793=>Børglum kloster (2320)<br>4794=>Børglum kloster (2320)<br>4310=>Børglum kloster (2320)<br>4392=>Børglum kloster (2320)<br>4420=>Børglum kloster (2320)"
2,10.12013506,57.06520776,"4310 4336","4310=>Vester-Hassing (2646)<br>4336=>Vester-Hassing (2646)"
2,9.94517372,57.35331082,"4405 17081","4405=>Vrå (2336)<br>17081=>Vrå (2336)"
3,9.62246601,57.24730572,"4478 4566","4478=>Hune (2369)<br>4478=>Rødhus (2373)<br>4566=>Hune (2369)"
1,9.71390405,57.06848707,4717,"4717=>Gjøl (2384)"
3,9.42020192,57.12592682,"17380 4873 4874","17380=>Fosdalen (2388)<br>4873=>Lerup (2389)<br>4874=>Lerup (2389)"
3,9.50899595,57.09430845,"4212 4351 17082","4212=>Bratskov (2397)<br>4351=>Brovst (2398)<br>17082=>Brovst (2398)"
1,9.35531249,57.13535335,4276,"4276=>Hjortdals (2429)"
1,8.97989659,57.03783744,4358,"4358=>Væsløs (2452)"
1,8.61685218,56.99574905,4977,"4977=>Øster-Vandet (2463)"
1,8.72562912,57.02778249,4167,"4167=>Kåstrup (2467)"
1,8.7957105,56.96737651,4338,"4338=>Sennels (2469)"
1,8.60325925,56.90880791,17105,"17105=>Skjoldborg (2480)"
1,8.56632825,56.9186392,4523,"4523=>Todbøl (2483)"
8,8.49004729,56.94748554,"4198 4199 4891 16988 16989 16990 16991 17084","4198=>Jannerup (2489)<br>4199=>Jannerup (2489)<br>4891=>Jannerup (2489)<br>16988=>Jannerup (2489)<br>16989=>Jannerup (2489)<br>16990=>Jannerup (2489)<br>16991=>Jannerup (2489)<br>17084=>Jannerup (2489)"
1,9.40756732,54.98983283,16990,"16990=>Stybbæk (4521)"
1,8.44029913,56.90062007,4927,"4927=>Nørre-Hå (2492)"
5,8.44661772,56.82524672,"4158 4232 4964 17381 17382","4158=>Hassing (2503)<br>4232=>Hassing (2503)<br>4964=>Hassing (2503)<br>17381=>Hassing (2503)<br>17382=>Hassing (2503)"
1,8.48166,56.706484,4609,"4609=>Boddum (2526)"
1,8.44876034,56.6647117,17364,"17364=>Tybjærg (2541)"
2,8.56931314,56.61326781,"4521 4745","4521=>Søndbjærg (2544)<br>4745=>Søndbjærg (2544)"
3,8.67061542,56.81603075,"4670 4917 4918","4670=>Dragstrup (2588)<br>4917=>Dragstrup (2588)<br>4918=>Dragstrup (2588)"
1,8.81731642,56.84745136,4823,"4823=>Alstedgård (2601)"
10,9.373212,55.885195,"4823 4259 4559 4678 4679 17011 17012 17013 17203","4823=>Alsted mølle (3818)<br>4259=>Kollemorten (3819)<br>4259=>Øster-Nykirke (3821)<br>4559=>Øster-Nykirke (3821)<br>4678=>Øster-Nykirke (3821)<br>4679=>Øster-Nykirke (3821)<br>17011=>Øster-Nykirke (3821)<br>17012=>Øster-Nykirke (3821)<br>17013=>Øster-Nykirke (3821)<br>17203=>Øster-Nykirke (3821)"
3,9.95603185,57.16277574,"4188 4341 4689","4188=>Sulsted (2637)<br>4341=>Sulsted (2637)<br>4689=>Sulsted (2637)"
2,10.47929094,56.38581059,"4188 4267","4188=>Mari-Malene (3371)<br>4267=>Mari-Malene (3371)"
1,10.08881217,56.99966645,4336,"4336=>Store-Vorde (2672)"
1,10.20254944,57.06995981,4166,"4166=>Øster-Hassing (2649)"
2,10.2569948,57.07626219,"4226 4663","4226=>Ulsted (2653)<br>4663=>Ulsted (2653)"
1,9.99745597,57.03081204,17384,"17384=>Nørre-Tranders (2659)"
1,10.21956972,56.97030321,17000,"17000=>Mov (2675)"
2,9.64459232,55.79600588,"17000 16980","17000=>Aggersbøl (4607)<br>16980=>Aggersbøl (4607)"
2,9.75289773,56.93998814,"4216 4274","4216=>Øster-Hornum (2688)<br>4274=>Øster-Hornum (2688)"
3,9.69286483,56.84542921,"4244 4245","4244=>Dragstrup sige (2703)<br>4244=>Suldrup (2704)<br>4245=>Suldrup (2704)"
1,9.68121288,56.96651518,4363,"4363=>Vogslev (2721)"
1,10.11185967,56.88367465,4907,"4907=>Sønder-Kongerslev (2724)"
2,10.05190161,55.98017822,"17392 4852","17392=>Torrild (3563)<br>4852=>Torrild (3563)"
3,9.23898132,56.9372919,"4869 4550 4868","4869=>Løgsted (2851)<br>4550=>Brøndumgård (2849)<br>4868=>Løgsted (2851)"
2,9.93025628,56.86272585,"4237 4281","4237=>Frær (2750)<br>4281=>Frær (2750)"
1,9.81387091,56.77518886,17126,"17126=>Rold (2776)"
1,9.72173689,56.6195027,4610,"4610=>Øls (2779)"
1,9.65004051,56.76576478,4457,"4457=>Smorup (2782)"
1,9.28788348,56.83415484,4889,"4889=>Hyldebjærg (2799)"
2,9.3360757,56.86446245,"4681 4716","4681=>Flejsborg (2801)<br>4716=>Flejsborg (2801)"
1,9.01213768,56.76395447,4243,"4243=>Rørbæk (2804)"
2,9.21998851,56.79001184,"4707 4708","4707=>Gunderupgård (2834)<br>4708=>Gunderupgård (2834)"
3,9.35760145,56.94930757,"4550 4551 4552","4550=>Skarpsalling (2866)<br>4551=>Skarpsalling (2866)<br>4552=>Skarpsalling (2866)"
1,9.22969026,56.90156343,4258,"4258=>Livø i Limfjorden (2854)"
1,9.28668351,56.90872247,4533,"4533=>Vilsted (2862)"
1,9.4738233,56.90102008,4540,"4540=>Navn sø (2868)"
1,9.46847879,56.98422923,4492,"4492=>Farstrup (2870)"
2,9.46648226,56.62116163,"4528 4398","4528=>Vester-Tostrup (3042)<br>4398=>Vester-Tostrup (3042)"
1,9.6619095,56.53164507,17296,"17296=>Nørre-Vinge (3102)"
4,9.03275937,56.56919621,"4546 4547 4548 17201","4546=>Skive (2892)<br>4547=>Skive (2892)<br>4548=>Skive (2892)<br>17201=>Skive (2892)"
1,8.92905296,56.65225585,4928,"4928=>Vojens (2901)"
3,9.01266703,56.63561907,"4928 4853 4854","4928=>Lyby (2911)<br>4853=>Båstrup (2910)<br>4854=>Båstrup (2910)"
5,9.09668456,56.76087207,"4469 4470 4471 4403 4404","4469=>Grætrup (2931)<br>4470=>Grætrup (2931)<br>4471=>Grætrup (2931)<br>4403=>Junget (2933)<br>4404=>Junget (2933)"
1,12.2183729,54.94106039,17116,"17116=>Marienborg (4556)"
1,12.30569237,55.93228835,17116,"17116=>Frederiksborg (4617)"
2,9.02754383,56.82667681,"4209 4831","4209=>Fur (2963)<br>4831=>Rødstenen (2965)"
1,8.78632945,56.59122572,4490,"4490=>Lem i Salling (2979)"
2,9.14028051,56.62178612,"4585 4586","4585=>Lundø (2994)<br>4586=>Lundø (2994)"
1,9.21746784,56.59746309,4219,"4219=>Ørslev kloster (2995)"
3,9.34359,56.62822779,"4219 4220 4401","4219=>Uldbjærg (3067)<br>4220=>Uldbjærg (3067)<br>4401=>Uldbjærg (3067)"
2,9.08690669,56.51416017,"4376 4925","4376=>Kobberup (2998)<br>4925=>Kobberup (2998)"
1,9.12694735,56.43629508,4712,"4712=>Dagbjærg (3005)"
1,9.3617377,56.71405477,4520,"4520=>Svingelbjærg (3028)"
1,9.3387978,56.69549546,4367,"4367=>Gjedsted (3032)"
2,9.55622921,56.69662805,4224,"4224=>Simested (3037)<br>4224=>Skat skov (3038)"
1,9.91748665,56.50453131,4225,"4225=>Bjærggrav (3053)"
1,9.30272533,56.56686453,17118,"17118=>Lynderupgård (3069)"
1,9.34733479,56.52834942,4497,"4497=>Navntoft (3084)"
3,9.30317806,56.47897071,"4165 4231 4309","4165=>Romlund (3088)<br>4231=>Romlund (3088)<br>4309=>Romlund (3088)"
3,9.72872587,56.52799187,"4972 4973 4974","4972=>Vorning (3114)<br>4973=>Vorning (3114)<br>4974=>Vorning (3114)"
1,9.82875862,56.45296348,4974,"4974=>Venning bakker (3131)"
1,9.91812401,56.45963011,4974,"4974=>Tånum (3134)"
2,9.57743689,56.37366129,"17143 17144","17143=>Vindum (3143)<br>17144=>Vindum (3143)"
4,9.83642156,56.43028867,"4607 4702 4703 4704","4607=>Vester-Velling (3157)<br>4702=>Vester-Velling (3157)<br>4703=>Vester-Velling (3157)<br>4704=>Vester-Velling (3157)"
1,9.44221523,56.32779423,4365,"4365=>Sjørslev (3173)"
1,9.43240349,56.25517925,4178,"4178=>Vinderslev (3184)"
1,9.333894,56.286321,17178,"17178=>Torning (3189)"
1,9.95341354,56.40107065,17178,"17178=>Kristianslund (4637)"
1,9.48771565,56.24361699,4728,"4728=>Sjerup (3194)"
1,9.47110478,56.1483529,4673,"4673=>Funder (3219)"
1,9.6811441,56.35123926,4866,"4866=>Gulev (3225)"
1,9.72253136,56.35611718,4865,"4865=>Gjerning (3230)"
1,9.8227168,56.36630128,4297,"4297=>Vellev (3233)"
2,9.76257845,56.36791677,"4297 4850","4297=>Busbjærg (4635)<br>4850=>Busbjærg (4635)"
2,9.91168722,56.32767275,"4824 4825","4824=>Bidstrup (3238)<br>4825=>Bidstrup (3238)"
2,9.92303396,56.35891903,"4824 4825","4824=>Essendrup krat (3318)<br>4825=>Lavrbjærg krat (3319)"
1,9.8612621,56.62941439,4802,"4802=>Anderup (3252)"
1,9.76185342,56.58448501,4217,"4217=>Sønder-Onsild (3253)"
1,10.31198874,56.62719342,4549,"4549=>Sødring (3269)"
1,10.18655208,56.57922546,4963,"4963=>Øster-Tørslev (3270)"
2,10.12959102,56.58744711,"4537 17146","4537=>Gjerlev (3271)<br>17146=>Gjerlev (3271)"
1,10.09665705,56.49371606,4537,"4537=>Tjæreby (3299)"
3,8.81679207,55.06013901,"17146 17098","17146=>Brede (4469)<br>17146=>Bredebro (4470)<br>17098=>Brede (4469)"
1,10.02530132,56.41896103,17107,"17107=>Haslum (3308)"
1,10.08609309,56.38771491,4445,"4445=>Askildstrup (3311)"
5,9.42949692,55.80849147,"16982 17036 17057 17090 17108","16982=>Hvejsel (3812)<br>17036=>Hvejsel (3812)<br>17057=>Hvejsel (3812)<br>17090=>Hvejsel (3812)<br>17108=>Hvejsel (3812)"
1,10.0494,56.348464,4418,"4418=>Nørre-Galten (3322)"
3,10.13314571,56.31072258,"4570 4571 4572","4570=>Ødum (3332)<br>4571=>Ødum (3332)<br>4572=>Ødum (3332)"
4,10.03937754,56.27874967,"4570 4571 4572 17202","4570=>Haldum (3503)<br>4571=>Haldum (3503)<br>4572=>Haldum (3503)<br>17202=>Haldum (3503)"
1,10.34401837,56.46651203,4436,"4436=>Julielund (3365)"
1,10.74013726,56.49673059,4933,"4933=>Emmedsbo (3405)"
1,10.72367324,56.47687714,4906,"4906=>Laen (3410)"
2,11.54457708,56.70505201,"4179 4181","4179=>Anholt (3422)<br>4181=>Anholt (3422)"
2,10.81506089,56.36394809,"4347 4441","4347=>Homå (3429)<br>4441=>Homå (3429)"
2,10.68640214,56.30044853,"4554 4709","4554=>Høgholm (3434)<br>4709=>Høgholm (3434)"
1,10.77207094,56.30167713,4809,"4809=>Rosmus (3433)"
3,10.58634969,56.28539975,"4326 4629","4326=>Feldballe (3437)<br>4326=>Øje sø (3440)<br>4629=>Feldballe (3437)"
1,10.52367332,56.23113175,4629,"4629=>Agrie (3449)"
1,10.50976994,56.19469411,4536,"4536=>Dragskjær (3454)"
8,10.48550918,56.29043477,"4636 4637 17337 17338 4820 4821","4636=>Bregnet (3461)<br>4637=>Bregnet (3461)<br>17337=>Bregnet (3461)<br>17337=>Kalvø (3463)<br>17338=>Bregnet (3461)<br>17338=>Kalvø (3463)<br>4820=>Kalvø slot (3464)<br>4821=>Kalvø slot (3464)"
1,10.21049352,56.26873003,17252,"17252=>Todbjærg (3484)"
1,10.09929141,56.2666501,4465,"4465=>Gl.-Hinnerup (3495)"
1,9.99780696,56.2918865,17391,"17391=>Vitten (3502)"
1,9.96726663,56.19891774,16984,"16984=>Skivholme (3523)"
1,9.5765261,55.38319879,16984,"16984=>Hejls (3952)"
1,9.94012695,56.1357368,4786,"4786=>Store-Ring (3534)"
1,10.10043691,56.06163056,17195,"17195=>Solbjærg sø (3544)"
1,10.20708539,56.05871918,17128,"17128=>Beder (3548)"
1,9.78571328,55.72107171,17128,"17128=>Rosenvold (3766)"
3,10.21320041,55.95881024,"4333 4667 17149","4333=>Bjærgagerv. Odder (3555)<br>4667=>Bjærgagerv. Odder (3555)<br>17149=>Dyngby (4618)"
3,9.98648017,56.03428143,"16965 17153 17393","16965=>Fruering (3574)<br>17153=>Fruering (3574)<br>17393=>Fruering (3574)"
7,9.8356371,56.07811135,"4314 4615 4616 4669 17254 17255","4314=>Dover (3589)<br>4615=>Dover (3589)<br>4616=>Dover (3589)<br>4669=>Dover (3589)<br>4669=>Illerup (3592)<br>17254=>Dover (3589)<br>17255=>Dover (3589)"
1,9.6928785,56.18970837,17321,"17321=>Sminge (3612)"
1,9.77414217,56.10741748,4893,"4893=>Jævngryde (3640)"
1,9.63943757,56.02137479,17069,"17069=>Sønder-Vissing (3657)"
1,9.51809004,56.02274383,4515,"4515=>Sejt (3667)"
1,10.0789662,55.8261813,4515,"4515=>Hjarnø (3787)"
1,9.38999496,55.96506418,4901,"4901=>Nørre-Snede (3678)"
1,9.49032722,55.93094871,4242,"4242=>Klovborg (3679)"
1,9.93691933,55.99114271,17233,"17233=>Hylke (3706)"
2,9.86775161,55.92840987,"4863 4864","4863=>Gjedved (3717)<br>4864=>Gjedved (3717)"
2,9.77179163,55.92628106,"17258 17282","17258=>Lundum (3719)<br>17282=>Lundum (3719)"
1,9.89308009,55.88771326,16978,"16978=>Nebel, Amrum (3725)"
1,9.68736606,55.92691592,4498,"4498=>Nim (3742)"
1,9.71521383,55.54197639,4246,"4246=>Erritsø (3916)"
2,8.80163831,54.94261759,"17035 17098","17035=>Møgeltønder (4447)<br>17098=>Møgeltønder (4447)"
2,9.93800241,55.79863714,"4754 4755","4754=>Skjolde (3781)<br>4755=>Skjolde (3781)"
1,10.0036492,55.80811982,4335,"4335=>Glud (3784)"
1,9.7034546,55.85291154,4539,"4539=>Tårnkrog (3793)"
1,9.65824266,55.74095127,4255,"4255=>Engum (3795)"
3,9.38319082,55.70244629,"4255 4254 4668","4255=>Bræsten (3852)<br>4254=>Bræsten (3852)<br>4668=>Bræsten (3852)"
1,9.58826623,55.84747798,4236,"4236=>Uldum (3808)"
1,8.9892034,55.50158803,17057,"17057=>Eskelund Kjær (4586)"
1,9.34814612,55.81619745,16983,"16983=>Givskud (3815)"
1,9.25779543,55.90628978,17402,"17402=>Tyregod (3835)"
3,9.12705174,55.9459115,"17014 17058 17260","17014=>Brande (3837)<br>17058=>Brande (3837)<br>17260=>Brande (3837)"
2,8.89396153,55.83813703,"16996 17261","16996=>Sønder-Omme (3845)<br>17261=>Sønder-Omme (3845)"
1,9.30436222,55.71874186,4254,"4254=>Nørup (3871)"
5,9.24934405,55.69568351,"4444 4618 4619 16986 17263","4444=>Almstok (3876)<br>4618=>Randbøl (3878)<br>4619=>Randbøl (3878)<br>16986=>Randbøl (3878)<br>17263=>Randbøl (3878)"
2,8.85730379,55.5490305,"4444 17168","4444=>Grene (4285)<br>17168=>Grene (4285)"
2,9.47559,55.523086,"4855 4922","4855=>Bramdrup (3935)<br>4922=>Bramdrup (3935)"
1,9.53782541,55.52738298,17109,"17109=>Eltang (3936)"
1,8.309011,56.523211,4157,"4157=>Romme (3967)"
4,8.31181859,56.45083072,"17359 17360","17359=>Flynder (3970)<br>17359=>Bækmark (4639)<br>17360=>Flynder (3970)<br>17360=>Bækmark (4639)"
3,8.34991012,56.3910552,"4573 4574 17215","4573=>Møborg (3973)<br>4574=>Møborg (3973)<br>17215=>Møborg (3973)"
2,8.61564687,56.38395169,"4573 4574","4573=>Måbjærg (4013)<br>4574=>Måbjærg (4013)"
4,8.69268956,56.36744648,"4573 4574 17215 17306","4573=>Mejrup (4014)<br>4574=>Mejrup (4014)<br>17215=>Mejrup (4014)<br>17306=>Mejrup (4014)"
3,8.38210526,56.52741547,"4580 4581 4582","4580=>Fabjærg (3980)<br>4581=>Fabjærg (3980)<br>4582=>Fabjærg (3980)"
1,8.17369803,56.62066705,4644,"4644=>Harboøre (3991)"
3,8.64201964,56.43840428,"17113 17268 17283","17113=>Hjerm (4018)<br>17268=>Hjerm (4018)<br>17283=>Hjerm (4018)"
2,9.040718,56.312681,"4356 17165","4356=>Grove (4057)<br>17165=>Grove (4057)"
4,8.70673568,56.32170455,"4699 4715 17271 4779","4699=>Tvis (4060)<br>4715=>Tvis (4060)<br>17271=>Tvis (4060)<br>4779=>Tvisgård (4062)"
1,8.87416621,56.23641891,4291,"4291=>Ørre (4068)"
1,9.15762141,56.13579896,17407,"17407=>Ikast (4079)"
3,8.78193285,55.93835342,"17044 17076 17130","17044=>Sønder-Felding (4090)<br>17076=>Sønder-Felding (4090)<br>17130=>Sønder-Felding (4090)"
4,9.18041262,56.11327889,"17076 17221 17222 17223","17076=>Toftlund (4418)<br>17221=>Toftlund (4418)<br>17222=>Toftlund (4418)<br>17223=>Toftlund (4418)"
2,8.30700823,56.19509868,"4331 4332","4331=>Tim (4136)<br>4332=>Tim (4136)"
3,8.56522933,56.25754291,"4756 4757 4758","4756=>Vind (4123)<br>4757=>Vind (4123)<br>4758=>Vind (4123)"
5,8.2861537,56.1439275,"4499 4501 4502 4503 4504","4499=>Volbjærg (4132)<br>4501=>Volbjærg (4132)<br>4502=>Volbjærg (4132)<br>4503=>Volbjærg (4132)<br>4504=>Volbjærg (4132)"
3,8.702898,56.08892904,"4432 4622 17229","4432=>Vorgod (4153)<br>4622=>Vorgod (4153)<br>17229=>Vorgod (4153)"
2,8.40857756,55.82287889,"4605 4706","4605=>Sønder-Vium (4185)<br>4706=>Sønder-Vium (4185)"
1,8.4446389,55.90317791,4856,"4856=>Bøle (4187)"
1,8.43773889,55.75976735,4415,"4415=>Kvong (4218)"
1,8.28871539,55.77870045,4290,"4290=>Nørre-Nebel (4220)"
1,8.35700288,55.79599626,4649,"4649=>Lydum (4222)"
1,8.5822951,55.46497798,4886,"4886=>Tjæreborg (4269)"
1,8.55619511,55.50608602,4317,"4317=>Skast (4272)"
3,8.42013036,55.42077137,"4239 17002 17166","4239=>Fanø (4276)<br>17002=>Fanø (4276)<br>17166=>Fanø (4276)"
4,9.08327118,55.6296138,"17168 4975 17167 17410","17168=>Vorbasse (4287)<br>4975=>Vorbasse (4287)<br>17167=>Vorbasse (4287)<br>17410=>Vorbasse (4287)"
1,8.99680232,55.69503806,4361,"4361=>Hejnsvig (4290)"
1,9.14109107,55.56995085,4227,"4227=>Bække (4293)"
1,9.01688742,55.5661491,16998,"16998=>Lindknud (4313)"
2,8.91838142,55.51450068,"4677 4719","4677=>Holsted (4320)<br>4719=>Holsted (4320)"
2,9.11742998,55.5219207,4829,"4829=>Fru Mettes bjærg (4336)<br>4829=>Hundsbæk (4338)"
3,8.70681512,55.39688553,"4169 4313 4357","4169=>Vilslev (4346)<br>4313=>Vilslev (4346)<br>4357=>Vilslev (4346)"
2,8.73244274,55.36384026,"4278 4279","4278=>Farup (4354)<br>4279=>Farup (4354)"
1,8.80276239,55.40369148,4614,"4614=>Hjortlund (4359)"
2,8.68281929,55.29186965,"4215 4372","4215=>Vester-Vedsted (4368)<br>4372=>Vester-Vedsted (4368)"
1,9.45534661,55.18028273,17037,"17037=>Hoptrup (4371)"
1,9.40161986,55.37312425,4816,"4816=>Frorup (4388)"
1,9.3590821,55.35439508,17040,"17040=>Stepping (4389)"
2,9.2939597,55.31614505,"17423 17424","17423=>Sommersted (4391)<br>17424=>Sommersted (4391)"
1,9.14370589,55.30843464,17169,"17169=>Øster-Lindet (4404)"
5,9.10599432,55.40991494,"4247 17008 17205 17217 17348","4247=>Skrave (4408)<br>17008=>Skrave (4408)<br>17205=>Skrave (4408)<br>17217=>Skrave (4408)<br>17348=>Kjøbenhoved (4579)"
1,8.98339194,55.31702773,17020,"17020=>Fole (4412)"
1,8.89942565,55.25952201,17349,"17349=>Spandetgård (4441)"
1,8.67905298,54.9832984,17097,"17097=>Emmerlev (4456)"
1,8.6616859,55.07133637,17097,"17097=>Kugsbøl (4559)"
1,8.94781772,55.06049031,4486,"4486=>Koldemos kirke (4477)"
2,9.10258616,54.94658235,"4379 4568","4379=>Bylderup (4486)<br>4568=>Bylderup (4486)"
1,9.07018611,54.91668922,4568,"4568=>Burkal (4489)"
3,9.46147095,55.09054028,"17287 17323 17413","17287=>Løjt (4511)<br>17323=>Løjt (4511)<br>17413=>Løjt (4511)"
2,9.56918805,55.01426547,"17009 17288","17009=>Varnæs (4524)<br>17288=>Varnæs (4524)"
1,9.31819277,55.02032089,17299,"17299=>Nybøl (4537)"
2,9.75315087,55.03544487,"17231 17239","17231=>Oksbøl (4547)<br>17239=>Oksbøl (4547)"
1,10.02795254,55.26334949,4731,"4731=>Kirke-Søby (4570)"
1,10.048885,55.396089,17174,"17174=>Ærholm (4577)"
1,9.44872588,55.60181971,4822,"4822=>Fønixborg (4598)"
1,9.28147579,56.45104467,4892,"4892=>Jegstrup (4640)"
1,9.33595226,56.77379815,4464,"4464=>Fredbjærg (4653)"
