freq,longitude,latitude,story_ids,story_place
1,9.4116545,55.04862654,18099,"18099=>Åbenrå (1)"
2,9.74794645,57.16692875,"6040 5974","6040=>Åby (3)<br>5974=>Fristrup enge (2625)"
1,9.01054031,56.4920081,6158,"6158=>Åkjær (21)"
1,9.4886069,55.5670455,6213,"6213=>Almind (37)"
1,9.97477036,56.76993809,18056,"18056=>Astrup (84)"
3,10.37605989,56.43195376,"6100 6101 6002","6100=>Avning (108)<br>6101=>Avning (108)<br>6002=>Tårup (1173)"
1,9.389126,56.320297,18094,"18094=>Avnsbjærg (109)"
1,11.97672013,54.77021703,6055,"6055=>Bellinge (121)"
1,10.31296587,55.33724584,18041,"18041=>Bellinge (122)"
1,8.65055798,55.95891424,6227,"6227=>Borris (170)"
1,8.91775704,56.58922585,18057,"18057=>Brøndum (202)"
1,8.80624546,55.11730256,6098,"6098=>Døstrup (231)"
3,10.28792117,57.15748006,"5979 6015 17993","5979=>Dronninglund (242)<br>6015=>Dronninglund (242)<br>17993=>Dronninglund (242)"
1,10.31225829,57.2885669,6235,"6235=>Dybvad (248)"
1,9.30375303,56.50826702,5992,"5992=>Fiskbæk (306)"
2,9.11742998,55.5219207,"6172 6097","6172=>Gammelby (335)<br>6097=>Hundsbæk (4338)"
4,9.73267011,56.02420768,"5983 6069 6017","5983=>Gandrup (338)<br>6069=>Mos sø (797)<br>6017=>Dørup (3658)<br>6017=>Voer kloster (3662)"
3,8.25956149,56.57005065,"6067 18024","6067=>Gjeller sø (347)<br>18024=>Gjeller sø (347)<br>18024=>Tørring (1219)"
1,8.92627143,55.75784153,6077,"6077=>Grindsted (366)"
2,9.55622921,56.69662805,"6221 6219","6221=>Guldager (373)<br>6219=>Skat skov (3038)"
1,10.010862,56.940995,18007,"18007=>Gunderup (376)"
1,8.9961129,56.38726949,6134,"6134=>Haderup (382)"
1,9.21746784,56.59746309,6092,"6092=>Hald (384)"
6,9.68866011,56.1539,"6041 6214 6216 6217 6218 6132","6041=>Hårup (410)<br>6214=>Hårup (410)<br>6216=>Hårup (410)<br>6217=>Hårup (410)<br>6218=>Hårup (410)<br>6132=>Mollerup (791)"
2,8.85177166,56.57478117,18037,"18037=>Håsum (416)<br>18037=>Kjærgårdsholm (627)"
1,8.861847,56.491927,18037,"18037=>Ægge Sø (4643)"
1,9.4181296,56.80367274,5971,"5971=>Havbro (421)"
1,11.98343325,55.66905184,5968,"5968=>Herslev (449)"
4,9.99749113,57.45913657,"6056 6119 6120 18028","6056=>Hjørring (469)<br>6119=>Hjørring (469)<br>6120=>Hjørring (469)<br>18028=>Hjørring (469)"
6,10.11557169,57.38471485,"6119 6116 6117 6118 6035 6236","6119=>Sørup sø (2308)<br>6116=>Sørup sø (2308)<br>6117=>Sørup sø (2308)<br>6118=>Sørup sø (2308)<br>6035=>Tårs hede (2310)<br>6236=>Vugdrup (2312)"
3,10.00262436,57.36224501,"6119 5977 6023","6119=>Høgsted (2313)<br>5977=>Høgsted (2313)<br>6023=>Høgsted (2313)"
1,10.30975213,57.61903603,6120,"6120=>Gårbo sø (2189)"
1,10.43689839,55.33173429,6021,"6021=>Højby (481)"
2,9.54601738,55.7627968,18000,"18000=>Højgård (485)<br>18000=>Grejs (3803)"
2,9.41612043,55.75406825,"18000 6147","18000=>Jelling (3882)<br>6147=>Jelling (3882)"
1,9.15762141,56.13579896,6224,"6224=>Højris (487)"
2,8.99217015,55.22956772,"18052 18053","18052=>Højrup (491)<br>18053=>Højrup (491)"
6,10.32289645,57.34965454,"6240 18033 5986 6000 6135","6240=>Højstrup (493)<br>6240=>Skavange (2277)<br>18033=>Torslev (1222)<br>5986=>Fladbirk (2274)<br>6000=>Skavange (2277)<br>6135=>Skavange (2277)"
1,9.55584445,55.75117948,6007,"6007=>Hornstrup (519)"
1,8.93061343,56.56627032,6034,"6034=>Hvidbjærg (558)"
5,10.13688564,57.42516618,"6116 6117 6118 6115 18054","6116=>Ilbjærge (572)<br>6117=>Ilbjærge (572)<br>6118=>Ilbjærge (572)<br>6115=>Lørslev (720)<br>18054=>Ugilt (2242)"
1,9.71411564,57.31273827,6018,"6018=>Ingstrup (576)"
5,10.4799494,57.47709661,"6050 6051 6121 6123 6081","6050=>Jebjærg (580)<br>6051=>Jebjærg (580)<br>6121=>Jebjærg (580)<br>6123=>Vindbæk (2212)<br>6081=>Jerup (4679)"
3,10.43807204,57.31823044,"6051 6121 17992","6051=>Øksenhede (2271)<br>6121=>Øksenhede (2271)<br>17992=>Volstrup (1332)"
1,9.17347087,56.31082534,18030,"18030=>Karup (601)"
3,10.55570458,55.7971772,"5980 6102 6103","5980=>Kolby (655)<br>6102=>Visborg eller Vestborg (1574)<br>6103=>Visborg eller Vestborg (1574)"
4,9.14109107,55.56995085,"6149 6027 6180","6149=>Kragelund (669)<br>6149=>Bække (4293)<br>6027=>Bække (4293)<br>6180=>Bække (4293)"
3,9.97718946,56.22214714,"6074 18034","6074=>Lading sø (678)<br>18034=>Lading sø (678)<br>18034=>Lading (3513)"
2,9.99211737,56.4052325,"5997 18042","5997=>Lundbjærg (722)<br>18042=>Værum (3316)"
1,10.16351111,56.06922865,18043,"18043=>Mårslet (770)"
1,10.21339439,56.3006803,6079,"6079=>Mejlby (780)"
1,10.13314571,56.31072258,6079,"6079=>Selling (3335)"
1,9.33453634,56.97674443,6126,"6126=>Næsborg (802)"
1,8.72562912,57.02778249,6053,"6053=>Nedergård (814)"
1,9.73562834,57.03783474,18017,"18017=>Nørholm (829)"
1,8.33208508,56.81422905,6059,"6059=>Ørum (873)"
1,9.2370254,56.56851646,18084,"18084=>Ørum (874)"
3,8.98817125,56.76991976,"6061 6062 6049","6061=>Østergård (885)<br>6062=>Østergård (885)<br>6049=>Sallingborg (2946)"
2,9.47110478,56.1483529,18018,"18018=>Pårup (908)<br>18018=>Funder (3219)"
3,10.0483414,56.4586074,"6241 6243 6244","6241=>Randers (923)<br>6243=>Randers (923)<br>6244=>Randers (923)"
1,9.76884261,56.60877172,6241,"6241=>Nørre-Onsild (3254)"
4,9.14028051,56.62178612,"6243 6112 6160 6242","6243=>Lundø (2994)<br>6112=>Lundø (2994)<br>6160=>Lundø (2994)<br>6242=>Lundø (2994)"
2,9.47103573,56.39369739,"18059 18104","18059=>Rind (947)<br>18104=>Rind (947)"
1,8.95811773,56.09047433,18014,"18014=>Rind (948)"
1,9.8614429,55.97300374,6012,"6012=>Ris (951)"
1,8.75039165,56.40578678,5990,"5990=>Risum (957)"
1,9.9260865,56.73172154,17996,"17996=>Rostrup (973)"
1,10.77207094,56.30167713,6187,"6187=>Rugård (977)"
1,9.97302162,57.31406506,6143,"6143=>Serritslev (1008)"
2,9.5470055,56.16936133,"6167 6166","6167=>Silkeborg (1017)<br>6166=>Silkeborg skov (3602)"
1,8.58942945,56.95694272,6071,"6071=>Sjørring sø (1025)"
2,9.74490166,56.20847193,"6063 6090","6063=>Skanderup (1037)<br>6090=>Skanderup (1037)"
1,10.06299816,56.8684854,18055,"18055=>Skibsted (1046)"
1,10.309553,57.288205,6088,"6088=>Skjæve (1057)"
1,8.49550545,55.95083856,6125,"6125=>Skjern (1061)"
1,11.53832782,54.9756953,5978,"5978=>Sønderby (1102)"
1,9.6512351,56.81585346,17995,"17995=>Sønderup (1110)"
4,9.99088175,56.05949507,"6068 18019 18102","6068=>Stilling sø (1133)<br>18019=>Stilling sø (1133)<br>18019=>Stilling (3573)<br>18102=>Stilling (3573)"
1,10.15199636,56.12316877,18019,"18019=>Viby (1309)"
1,9.21998851,56.79001184,6220,"6220=>Strandby (1139)"
7,10.57176875,55.84903122,"5993 6096 6178 6179 6039 6110 6020","5993=>Tanderup (1156)<br>6096=>Tanderup (1156)<br>6178=>Tanderup (1156)<br>6179=>Tanderup (1156)<br>6039=>Dyret (1575)<br>6110=>Dyret (1575)<br>6020=>Selsinggårde (1577)"
7,9.84559872,56.01132805,"6005 6016 6019 6052 6076 6099","6005=>Tåning (1164)<br>6016=>Tåning (1164)<br>6016=>Snedtrup præstegård (3702)<br>6019=>Tåning (1164)<br>6052=>Tåning (1164)<br>6076=>Tåning (1164)<br>6099=>Tåning (1164)"
2,9.27580365,56.53917503,"5991 6080","5991=>Tårup (1174)<br>6080=>Jordbro mølle (2996)"
5,9.80331066,57.29650619,"6138 6139 6140 18070 18071","6138=>Tise (1189)<br>6139=>Tise (1189)<br>6140=>Tise (1189)<br>18070=>Tise (1189)<br>18071=>Tise (1189)"
1,9.90701839,57.30294273,17994,"17994=>Tolstrup (1200)"
1,8.56141685,56.75321176,6191,"6191=>Torp (1211)"
1,9.4850338,57.07415465,6165,"6165=>Torslev (1221)"
1,9.97425461,56.82201514,18029,"18029=>Torup (1226)"
1,11.1641187,55.64331162,6151,"6151=>Uggerslev (1271)"
2,9.79005515,56.40882276,"6238 6239","6238=>Ulstrup (1280)<br>6239=>Ulstrup (1280)"
2,9.12705174,55.9459115,"5975 18049","5975=>Ure (1281)<br>18049=>Brande (3837)"
2,9.5521637,55.71165991,"6058 6246","6058=>Vejle (1300)<br>6246=>Vejle (1300)"
2,9.71521383,55.54197639,"6246 18103","6246=>Erritsø (3916)<br>18103=>Erritsø (3916)"
1,9.85225898,55.43914396,6008,"6008=>Viby (1308)"
1,9.47337079,55.45511559,18023,"18023=>Vonsild (1337)"
2,12.55338778,55.68488326,"6245 6252","6245=>Kjøbenhavn (1341)<br>6252=>Kjøbenhavn (1341)"
1,9.74889991,56.8216214,6245,"6245=>Tvorndal (2701)"
1,12.03010001,55.9865672,6155,"6155=>Asserbo (1371)"
1,12.25275668,55.62614451,6170,"6170=>Benzonsdal (1410)"
1,11.30930063,55.50046107,6168,"6168=>Kulby (1512)"
1,10.94768309,55.73466966,6233,"6233=>Grimsdal (1521)"
2,10.64140852,55.86326329,"6022 18065","6022=>Besser (1583)<br>18065=>Besser (1583)"
1,11.57298336,55.29786289,6045,"6045=>Sneslev (1629)"
1,11.25718547,55.36278196,6145,"6145=>Ormitslev (1647)"
1,11.29055466,55.34548624,5964,"5964=>Hemmershøj (1651)"
1,11.27076891,55.30099507,18066,"18066=>Boslunde (1653)"
1,11.58779896,55.23357245,6146,"6146=>Menstrup (1676)"
1,12.25061662,55.34147767,6003,"6003=>Stevns klint (1699)"
1,12.01913174,55.04027329,6043,"6043=>Kulsbjærg (1747)"
2,12.16277647,55.00013266,"5969 6009","5969=>Viemose (1756)<br>6009=>Viemose (1756)"
1,14.97012857,55.20867683,6060,"6060=>Horkarakløppa (1789)"
1,11.48519812,54.73745949,6223,"6223=>Bursø (1823)"
1,10.60511284,55.34465585,6075,"6075=>Rønninge Søgårds sø (1911)"
1,10.39599158,55.3017613,6087,"6087=>Lyndelse (1918)"
1,9.96126412,55.24200192,6148,"6148=>Hagenskovs kloster (2021)"
3,10.00026428,55.15714245,"18067 18068 18069","18067=>Helnæs (2022)<br>18068=>Helnæs (2022)<br>18069=>Helnæs (2022)"
2,10.52468885,55.17876846,"5963 5966","5963=>Kværndrup (2047)<br>5966=>Trunderup (2049)"
1,10.40267651,54.97718574,5995,"5995=>Drejø (2053)"
1,10.45413182,55.20170346,6086,"6086=>Fjellebro (2068)"
1,10.31384379,57.48321395,5967,"5967=>Skjørbæks hede (2214)"
1,10.19597408,57.47425374,17991,"17991=>Sindal (2246)"
1,10.10652524,57.56519257,6175,"6175=>Uggerby (2252)"
1,10.10058993,57.24046025,6174,"6174=>Hallund (2299)"
1,9.86429637,57.32061766,6114,"6114=>Stenum (2335)"
1,9.94517372,57.35331082,6156,"6156=>Vrå (2336)"
1,9.66958207,57.21084237,5972,"5972=>Jetsmark (2375)"
1,9.42020192,57.12592682,6128,"6128=>Fosdalen (2388)"
2,10.03168556,56.77982117,"6072 6222","6072=>Lendrup sø (2425)<br>6222=>Tisted fjord (2426)"
1,9.16677663,57.09680291,6104,"6104=>Klim (2436)"
2,9.00099051,57.10595107,"6044 6154","6044=>Skarre klit (2448)<br>6154=>Skarre klit (2448)"
1,8.73479715,57.01500974,6144,"6144=>Kjeldstrup (2466)"
1,8.7957105,56.96737651,6188,"6188=>Sennels (2469)"
4,8.40543892,56.71055607,"6188 6184 6185 6186","6188=>Ydby (2531)<br>6184=>Ydby (2531)<br>6185=>Ydby (2531)<br>6186=>Ydby (2531)"
6,8.35734437,56.71842997,"6188 6141 6142 6189 18082 18083","6188=>Hjælpensbjærg (2533)<br>6141=>Hjælpensbjærg (2533)<br>6142=>Hjælpensbjærg (2533)<br>6189=>Hjælpensbjærg (2533)<br>18082=>Hjælpensbjærg (2533)<br>18083=>Hjælpensbjærg (2533)"
9,8.54350526,56.86406245,"6038 6131 6194 6196 6197 6198 18073 18080 18081","6038=>Øland (2496)<br>6131=>Øland (2496)<br>6194=>Øland (2496)<br>6196=>Øland (2496)<br>6197=>Øland (2496)<br>6198=>Øland (2496)<br>18073=>Øland (2496)<br>18080=>Øland (2496)<br>18081=>Øland (2496)"
1,8.57136705,56.83725467,6195,"6195=>Skyum (2497)"
2,8.48840034,56.84682453,18016,"18016=>Hørdum (2498)<br>18016=>Irup (2500)"
1,8.31670931,56.75720487,6190,"6190=>Vestervig (2520)"
2,8.56931314,56.61326781,"6183 6193","6183=>Søndbjærg (2544)<br>6193=>Søndbjærg (2544)"
1,9.96556941,57.17978982,6048,"6048=>Tylstrup (2639)"
1,10.12013506,57.06520776,6014,"6014=>St.-Havkrog (2645)"
1,9.8965714,56.95132156,6109,"6109=>Nøtten (2663)"
1,9.7379295,56.99928983,6199,"6199=>Store-Restrup (2680)"
1,9.86580873,56.93137827,6004,"6004=>Katvad (2687)"
2,10.11185967,56.88367465,"6025 6026","6025=>Sønder-Kongerslev (2724)<br>6026=>Sønder-Kongerslev (2724)"
1,10.03894551,56.84529275,6024,"6024=>Hale skov (2731)"
1,9.59358865,56.75149212,6028,"6028=>Kongens-Tisted (2811)"
1,9.2363639,56.69459991,6201,"6201=>Lovns (2823)"
1,9.28668351,56.90872247,6042,"6042=>Vilsted (2862)"
1,9.46847879,56.98422923,5981,"5981=>Krastrup (2874)"
1,9.37836463,56.45780394,6234,"6234=>Viborg (2887)"
1,9.01266703,56.63561907,6089,"6089=>Lyby (2911)"
1,9.06787969,56.69700668,18058,"18058=>Grinderslev (2916)"
2,9.03680932,56.71756594,"5987 5988","5987=>Ytrup (2943)<br>5988=>Ytrup (2943)"
3,8.9884204,56.70460706,"6248 6249 6250","6248=>Lorilddal (2952)<br>6249=>Lorilddal (2952)<br>6250=>Lorilddal (2952)"
2,8.88006151,56.61540176,"6046 6047","6046=>Holmgårds slot (2972)<br>6047=>Holmgårds slot (2972)"
1,9.13191071,56.58161849,6192,"6192=>Højslev (2987)"
1,9.12694735,56.43629508,6129,"6129=>Dagbjærg Dås (3006)"
1,9.63609942,56.59030387,6105,"6105=>Brattingsborg so (3050)"
1,9.52061247,56.54723128,17988,"17988=>Pengestenen, Grib Skov (3093)"
1,9.90314564,56.48560693,6127,"6127=>Fussing (3125)"
1,9.57743689,56.37366129,6070,"6070=>Skavn sø (3142)"
1,9.67710435,56.39629242,6208,"6208=>Hjermind sø (3149)"
1,9.70546359,56.42039279,6208,"6208=>Kjællinghøl (3156)"
1,9.43240349,56.25517925,18004,"18004=>Vinderslev (3184)"
1,9.66364638,56.22223224,6162,"6162=>Svostrup (3201)"
3,9.52005422,56.21760026,"5984 17998","5984=>Ebstrup (3207)<br>5984=>Sejling (3208)<br>17998=>Sejling (3208)"
1,10.03578012,56.53842593,18035,"18035=>Hastrup (3286)"
1,9.25779543,55.90628978,18035,"18035=>Tyregod (3835)"
1,10.18870215,56.33456056,6107,"6107=>Halling skov (3337)"
1,10.56705931,56.37457766,18095,"18095=>Koed (3375)"
2,10.63684485,56.34493833,"6137 18085","6137=>Nødager (3441)<br>18085=>Nødager (3441)"
1,10.70248201,56.22370281,6136,"6136=>Skjærsø (3448)"
2,10.45547016,56.34646653,"6181 6182","6181=>Rostved (3459)<br>6182=>Rostved (3459)"
4,10.48550918,56.29043477,"6106 6176 6177 6122","6106=>Kalvø slot (3464)<br>6176=>Kalvø slot (3464)<br>6177=>Kalvø slot (3464)<br>6122=>Rønde (3465)"
1,10.03937754,56.27874967,6078,"6078=>Sandby enge (3506)"
1,10.10043691,56.06163056,6230,"6230=>Solbjærg sø (3544)"
1,10.07181907,56.06807347,18031,"18031=>Blegind (3577)"
4,9.6928785,56.18970837,"6032 6033 6226 6169","6032=>Vole (3613)<br>6033=>Vole (3613)<br>6226=>Vole (3613)<br>6169=>Vole hede (3614)"
1,9.78611904,56.16882659,6153,"6153=>Soning (3631)"
3,9.7076326,56.07812985,"6082 6164 6225","6082=>Emborg (3644)<br>6164=>Skovsbjærg (3652)<br>6225=>Skovsbjærg (3652)"
2,9.63943757,56.02137479,"6001 6091","6001=>Addit (3654)<br>6091=>Addit (3654)"
1,9.48542877,55.85532153,6085,"6085=>Tørring å (3683)"
1,9.737277,55.892376,18010,"18010=>Tamdrup (3738)"
4,9.49149073,55.49190407,"6209 6210 6211 6212","6209=>Koldinghus ell. slot (3759)<br>6210=>Koldinghus ell. slot (3759)<br>6211=>Koldinghus ell. slot (3759)<br>6212=>Koldinghus ell. slot (3759)"
5,9.47559,55.523086,"6210 6212 6237 18032 18097","6210=>Bramdrup skov (3934)<br>6212=>Bramdrup skov (3934)<br>6237=>Bramdrup (3935)<br>18032=>Bramdrup (3935)<br>18097=>Bramdrup (3935)"
2,9.78571328,55.72107171,"18044 18051","18044=>Rosenvold (3766)<br>18051=>Rosenvold (3766)"
2,9.30436222,55.71874186,"18051 18050","18051=>Nørup (3871)<br>18050=>Nørup (3871)"
1,9.17733486,55.80010134,18048,"18048=>Ringive (3823)"
5,9.23259893,55.8468133,"18003 18096 18002","18003=>Donneruplund (3827)<br>18003=>Give (3829)<br>18096=>Donneruplund (3827)<br>18096=>Give (3829)<br>18002=>Give (3829)"
1,9.32137834,55.77096642,18062,"18062=>Gadbjærg (3858)"
1,9.24202741,55.77058218,5970,"5970=>Lindeballe (3865)"
3,9.24934405,55.69568351,"18036 18022","18036=>Bindeballe (3877)<br>18036=>Randbøl (3878)<br>18022=>Randbøl (3878)"
1,9.43858316,55.67283345,18011,"18011=>Jerlev (3887)"
2,9.40066468,55.65757088,"18012 6130","18012=>Ødsted (3889)<br>6130=>Ammidsbøl (3894)"
7,8.17369803,56.62066705,"6202 6204 6207 6203 6205 6206","6202=>Knopper (3992)<br>6204=>Knopper (3992)<br>6204=>Langerhuse (3993)<br>6207=>Knopper (3992)<br>6203=>Langerhuse (3993)<br>6205=>Langerhuse (3993)<br>6206=>Langerhuse (3993)"
1,8.14158228,56.47814353,6036,"6036=>Fjaltring (4009)"
1,8.61564687,56.38395169,6065,"6065=>Måbjærg (4013)"
1,8.52419918,56.38610527,5994,"5994=>Navr (4028)"
1,8.78630415,56.52065512,18013,"18013=>Ejsing (4041)"
1,8.83362676,56.18019001,18038,"18038=>Nøvling (4065)"
1,8.851376,56.214532,6066,"6066=>Sindinggård (4069)"
3,8.33953781,56.29960833,"6093 6094 6095","6093=>Ulfborg (4114)<br>6094=>Ulfborg (4114)<br>6095=>Ulfborg (4114)"
1,8.53003402,56.17769268,6228,"6228=>Nørre-Omme (4135)"
3,8.21425645,56.19854236,"5999 18015","5999=>Østertoft (4138)<br>18015=>Østertoft (4138)<br>18015=>Stadil (4140)"
1,8.37239889,55.96320278,18075,"18075=>Stavning (4166)"
1,8.4446389,55.90317791,18039,"18039=>Lønborg (4188)"
2,8.49162946,55.80164939,"6006 5976","6006=>Glibstrup (4192)<br>5976=>Lyne (4193)"
1,8.53756484,55.79289029,6150,"6150=>Strellev (4197)"
2,8.60045399,55.87516419,"6200 6229","6200=>Ådum (4198)<br>6229=>Ådum (4198)"
2,8.3699163,55.6223361,"5982 6152","5982=>Jandrup (4208)<br>6152=>Jandrup (4208)"
3,8.85730379,55.5490305,"6113 18006 18098","6113=>Grene (4285)<br>18006=>Grene (4285)<br>18098=>Grene (4285)"
3,9.08327118,55.6296138,"5973 18063","5973=>Vorbasse (4287)<br>18063=>Vorbasse (4287)<br>18063=>Fitting (4599)"
1,9.24419327,55.55835913,5973,"5973=>Veerst (4292)"
3,9.1999361,55.52522839,"5973 6073 6161","5973=>Gjesten (4304)<br>6073=>Revsing sø (4306)<br>6161=>Revsing (4592)"
1,9.32170212,55.51180511,6108,"6108=>Lejrskov (4298)"
1,8.9892034,55.50158803,6159,"6159=>Tirslund krat (4316)"
1,8.9366792,55.45078486,5965,"5965=>Åtte (4321)"
4,9.14255855,55.47592324,"6029 6030 6031 6171","6029=>Vejen (4334)<br>6030=>Vejen (4334)<br>6031=>Vejen (4334)<br>6171=>Vejen (4334)"
2,8.8262537,55.31156766,"6111 6064","6111=>Høm (4362)<br>6064=>Munke sø (4363)"
1,9.2939597,55.31614505,18076,"18076=>Sommersted (4391)"
1,9.12743054,55.13081541,5998,"5998=>Rangstrup (4428)"
3,8.80163831,54.94261759,"18077 18078 18079","18077=>Møgeltønder (4447)<br>18078=>Møgeltønder (4447)<br>18079=>Møgeltønder (4447)"
2,8.81679207,55.06013901,"6010 6013","6010=>Brede (4469)<br>6013=>Brede (4469)"
1,9.35986674,55.11536159,5996,"5996=>Øster-Løgum (4508)"
1,9.87016247,54.98214579,6157,"6157=>Heltvedgård (4546)"
1,10.68597858,55.4965815,5989,"5989=>Romsø (4585)"
1,9.76257845,56.36791677,6231,"6231=>Busbjærg (4635)"
