freq,longitude,latitude,story_ids,story_place
3,9.74794645,57.16692875,"5498 5216 5159","5498=>Åby (3)<br>5216=>Åstrup (93)<br>5159=>Birkelse (4667)"
1,9.29617367,57.09917817,5194,"5194=>Ågård (7)"
3,9.05474062,56.1479359,"5213 17560 17713","5213=>Agerskov (11)<br>17560=>Gjellerup (348)<br>17713=>Gjellerup (348)"
1,9.12743054,55.13081541,17560,"17560=>Agerskov (12)"
6,9.96556941,57.17978982,"4999 5499 5500 17586 4990","4999=>Ajstrup (16)<br>5499=>Ajstrup (16)<br>5500=>Ajstrup (16)<br>17586=>Ajstrup (16)<br>17586=>Gammel-Vrå (331)<br>4990=>Gåselunerne (2638)"
3,8.28146,55.632333,"17537 17737","17537=>Ål (22)<br>17537=>Hesselmed (4231)<br>17737=>Ål (22)"
3,8.69072917,56.70084584,"5284 17524 17585","5284=>Albæk (23)<br>17524=>Øster-Assels (2579)<br>17585=>Øster-Assels (2579)"
3,9.56111779,55.88758037,"17705 5164","17705=>Åle (29)<br>5164=>Bjærggård (140)<br>5164=>Brejnholm (3681)"
4,9.33984522,57.07189252,"5198 5001 5464 17441","5198=>Ålegård (30)<br>5001=>Hendrik sø. Skræm (2413)<br>5464=>Skræm (2414)<br>17441=>Skræm (2414)"
2,9.4886069,55.5670455,"5191 17483","5191=>Almind (37)<br>17483=>Almind (37)"
3,10.84759727,56.37121286,"17529 5169","17529=>Ålsø (42)<br>17529=>Katholm (3424)<br>5169=>Katholm (3424)"
2,9.74889991,56.8216214,"5388 5093","5388=>Årestrup (54)<br>5093=>Stubberup (1142)"
2,9.41643927,56.75901943,"5369 5277","5369=>Årup (64)<br>5277=>Fruergård (325)"
3,10.02216133,55.75891388,"17530 17570 17635","17530=>As (65)<br>17570=>As (65)<br>17635=>As (65)"
2,10.023887,55.746783,"17530 17570","17530=>Palsgård (904)<br>17570=>Palsgård (904)"
1,9.89391897,55.71048336,17570,"17570=>Barritskov (3768)"
1,9.90012939,55.27057781,17752,"17752=>Assens (77)"
4,8.98817125,56.76991976,"5321 5108 5221 5222","5321=>Åsted (82)<br>5108=>Sallingborg (2946)<br>5221=>Sallingborg (2946)<br>5222=>Sallingborg (2946)"
11,9.97477036,56.76993809,"17576 17577 17755 17499 5014 5033 5034 5035 5244","17576=>Astrup (84)<br>17576=>Villestrup (2771)<br>17577=>Astrup (84)<br>17577=>Villestrup (2771)<br>17755=>Astrup (84)<br>17499=>Madum Sø (2770)<br>5014=>Madum Sø (2770)<br>5033=>Madum Sø (2770)<br>5034=>Madum Sø (2770)<br>5035=>Madum Sø (2770)<br>5244=>Villestrup (2771)"
2,9.52098813,56.18420884,"5463 5144","5463=>Balle (111)<br>5144=>Dronningsholm (3204)"
2,9.50462116,56.49808114,"5330 5470","5330=>Batum (119)<br>5470=>Sødal skov (3090)"
1,8.69180155,56.95889879,5069,"5069=>Bisgård (128)"
3,10.57176875,55.84903122,"5260 5402 5494","5260=>Bisgård (129)<br>5402=>Bisgård (129)<br>5494=>Tanderup (1156)"
1,9.25829724,56.85728982,5186,"5186=>Bjørnsholm (146)"
2,9.4850338,57.07415465,"5186 4992","5186=>Kokkedal (654)<br>4992=>Alsbjærg (2405)"
2,9.46847879,56.98422923,"5186 5016","5186=>Vår (1292)<br>5016=>Lundegård (2875)"
1,10.68640214,56.30044853,5123,"5123=>Bjørnsholm (147)"
3,10.74455972,56.36650725,"5123 5421 5124","5123=>Obdrupgården (3432)<br>5421=>Lyngby (751)<br>5124=>Obdrupgården (3432)"
1,9.30317806,56.47897071,5202,"5202=>Boller (154)"
5,9.30973468,55.61507191,"5074 5075 5483 17482 5471","5074=>Bølling (157)<br>5075=>Bølling (157)<br>5483=>Amhede (3895)<br>17482=>Egtved (3899)<br>5471=>Egtved skov (3900)"
7,9.65366138,55.88982838,"5133 5134 5136 5466 5349 5433 5295","5133=>Boring (165)<br>5134=>Boring (165)<br>5136=>Boring (165)<br>5466=>Hvirring (3744)<br>5349=>Rask (3746)<br>5433=>Rask mølle (3747)<br>5295=>Trebjærg (3750)"
4,9.66467701,55.85329784,"5133 5136 5135 5137","5133=>Hornborg (512)<br>5136=>Hornborg (512)<br>5135=>Havrum (427)<br>5137=>Havrum (427)"
2,12.00178113,54.83389963,"5076 5077","5076=>Borre (167)<br>5077=>Borre (167)"
1,8.65055798,55.95891424,4996,"4996=>Borris (170)"
1,9.07150442,55.1232587,17467,"17467=>Branderup (184)"
8,9.57743689,56.37366129,"17694 17695 17671 17672 17744 17758","17694=>Brandstrup (185)<br>17694=>Vindum (3143)<br>17695=>Brandstrup (185)<br>17695=>Vindum (3143)<br>17671=>Vindum (3143)<br>17672=>Vindum (3143)<br>17744=>Vindum (3143)<br>17758=>Vindum (3143)"
2,10.19824035,56.41384351,"5078 5313","5078=>Brattingsborg (188)<br>5313=>Hørning (517)"
3,9.6598159,55.65100588,"5131 17509 17734","5131=>Brejning (195)<br>17509=>Gaverslund (3923)<br>17734=>Gaverslund (3923)"
3,8.9892034,55.50158803,"17788 17511 5454","17788=>Brørup (203)<br>17511=>Gravengård (4319)<br>5454=>Gravengård (4319)"
1,9.01688742,55.5661491,17788,"17788=>Lindknud (4313)"
4,9.88704892,56.98163851,"17476 17551 17552 17651","17476=>Dal (212)<br>17551=>Dal (212)<br>17552=>Dal (212)<br>17651=>Dal (212)"
1,9.50583515,55.46759288,17607,"17607=>Dalby (215)"
1,11.98343325,55.66905184,17607,"17607=>Hersnab (1424)"
4,9.78611904,56.16882659,"17505 17655 5030 5031","17505=>Dallerup (216)<br>17655=>Dallerup (216)<br>5030=>Dallerup sø (3630)<br>5031=>Dallerup sø (3630)"
5,9.68866011,56.1539,"17505 17655 5344","17505=>Hjul sø (474)<br>17505=>Linå (702)<br>17655=>Linå (702)<br>17655=>Bjarup (4629)<br>5344=>Mollerup (791)"
1,9.81101498,56.1519176,17655,"17655=>Låsby (691)"
1,8.66720039,56.77254886,5032,"5032=>Damsgård (224)"
1,9.74345719,56.68568787,5217,"5217=>Døstrup (230)"
7,10.28792117,57.15748006,"5002 5324 5352 5353 5354 5459 5447","5002=>Dronninggård (240)<br>5324=>Dronninglund (242)<br>5352=>Dronninglund (242)<br>5353=>Dronninglund (242)<br>5354=>Dronninglund (242)<br>5459=>Dronninglund (242)<br>5447=>Gammel-kirke (2290)"
2,12.50083367,55.80989088,"5002 5088","5002=>Hjortholm (472)<br>5088=>Hjortholm (472)"
1,10.03937754,56.27874967,5081,"5081=>Egelund (257)"
1,10.52468885,55.17876846,5246,"5246=>Egeskov (264)"
2,11.4397201,55.80248958,17516,"17516=>Fårevejle (289)<br>17516=>Dragsholm (4608)"
3,9.8965714,56.95132156,"17498 17550 17702","17498=>Ferslev (302)<br>17550=>Ferslev (302)<br>17702=>Ferslev (302)"
1,8.50621919,56.0187194,5323,"5323=>Finderup (305)"
3,8.90706651,56.13391485,"5323 17781 17747","5323=>Snejbjærg (4088)<br>17781=>Snejbjærg (4088)<br>17747=>Snejbjærg (4088)"
2,11.25718547,55.36278196,"5064 5015","5064=>Foerlev (312)<br>5015=>Møllesøen (1646)"
1,9.62628252,55.93511271,17506,"17506=>Fovling (314)"
4,9.76884261,56.60877172,"5223 17704 5334","5223=>Fyrkat mølle (329)<br>17704=>Fyrkat mølle (329)<br>17704=>Nørre-Onsild (3254)<br>5334=>Nørre-Onsild (3254)"
10,9.97425461,56.82201514,"5348 17444 17445 17446 17447 17448 17499 17611 17670 17684","5348=>Gammelby (332)<br>17444=>Torup (1226)<br>17445=>Torup (1226)<br>17446=>Torup (1226)<br>17447=>Torup (1226)<br>17448=>Torup (1226)<br>17499=>Torup (1226)<br>17611=>Torup (1226)<br>17670=>Torup (1226)<br>17684=>Torup (1226)"
1,10.01132401,56.82231318,5348,"5348=>Siem (1013)"
2,8.94704952,56.7403163,"5328 5329","5328=>Gammelby (333)<br>5329=>Gammelby (333)"
3,9.70370454,55.63840667,"17511 17712","17511=>Gårslev (339)<br>17712=>Gårslev (339)<br>17712=>Mørkholt (4600)"
1,9.21079873,57.05402951,5431,"5431=>Gjøtrup (360)"
3,10.01192636,57.15092785,"5381 5413 5037","5381=>Grindsted (365)<br>5413=>Hammer (395)<br>5037=>Hammer bakker (396)"
9,8.92627143,55.75784153,"5299 5311 5382 5482 5207 5208 5079 5024 5264","5299=>Grindsted (366)<br>5311=>Grindsted (366)<br>5382=>Grindsted (366)<br>5482=>Grindsted (366)<br>5207=>Urup (1283)<br>5208=>Urup (1283)<br>5079=>Dalbygård (4277)<br>5024=>Grindsted sø (4279)<br>5264=>Lundenæs (4281)"
1,9.61833913,56.27388691,5407,"5407=>Grønbæk (367)"
11,8.9961129,56.38726949,"17459 17460 17461 5017 5018 5019 5020 5071","17459=>Haderup (382)<br>17459=>Krag sø (663)<br>17460=>Haderup (382)<br>17460=>Krag sø (663)<br>17461=>Haderup (382)<br>17461=>Krag sø (663)<br>5017=>Krag sø (663)<br>5018=>Krag sø (663)<br>5019=>Krag sø (663)<br>5020=>Krag sø (663)<br>5071=>Ginderskov (4053)"
1,9.31879937,56.37078665,5230,"5230=>Hald (385)"
2,9.38999496,55.96506418,"5039 17452","5039=>Hampen sø (397)<br>17452=>Hampen sø (397)"
6,10.09670998,55.5001816,"17432 17433 17434 17435 5052 5051","17432=>Hårslev (408)<br>17433=>Hårslev (408)<br>17434=>Hårslev (408)<br>17435=>Hårslev (408)<br>5052=>Padersø (1968)<br>5051=>Padersø-høl (1969)"
2,9.12831637,56.70268186,"5375 5086","5375=>Havbjærg (419)<br>5086=>Havbjærggård (2924)"
1,9.67463947,56.78461746,5415,"5415=>Haverslev (424)"
1,9.86449283,56.30454262,5339,"5339=>Havrum (426)"
2,9.62246601,57.24730572,"5038 17442","5038=>Helligsø (436)<br>17442=>Hune (2369)"
1,8.34457455,56.7011139,4993,"4993=>Helligsø (437)"
1,8.67308198,57.02164637,4993,"4993=>Nors Sø (4660)"
1,9.88849319,56.42909109,5211,"5211=>Helstrup (440)"
2,8.95267034,56.14219771,"5451 17639","5451=>Herning (446)<br>17639=>Herning (446)"
1,9.55676757,56.55599601,5261,"5261=>Hersomgård (451)"
2,8.73479715,57.01500974,"17474 17692","17474=>Hillerslev (459)<br>17692=>Hillerslev (459)"
1,9.99749113,57.45913657,5437,"5437=>Hjørring (469)"
2,10.618973,55.874733,"5106 5107","5106=>Hjortholm (473)<br>5107=>Hjortholm (473)"
7,10.59139922,55.83257606,"5106 5456 5073 5184 5377 5479 5480","5106=>Søllemark (1566)<br>5456=>Tranbjærg (1242)<br>5073=>Blafferholm (1562)<br>5184=>Gl. Brattingsborg (1563)<br>5377=>Sellegård (1564)<br>5479=>Pilemark (4613)<br>5480=>Pilemark (4613)"
3,10.55570458,55.7971772,"5106 5420 5180","5106=>Visborg eller Vestborg (1574)<br>5420=>Kolby (655)<br>5180=>Visborg eller Vestborg (1574)"
1,9.49068388,55.66364171,17616,"17616=>Højen (483)"
4,9.54601738,55.7627968,"5095 17507 5427","5095=>Højgård (485)<br>17507=>Højgård (485)<br>17507=>Grejs (3803)<br>5427=>Grejs (3803)"
2,9.41612043,55.75406825,"17507 17768","17507=>Jelling (3882)<br>17768=>Jelling (3882)"
1,10.38135001,57.32361016,17497,"17497=>Hørby (506)"
2,11.80345323,55.7680577,"5128 5129","5128=>Horne (513)<br>5129=>Horne (513)"
3,8.53207921,55.72494883,"17783 5450 5003","17783=>Horne (516)<br>5450=>Transbøl (4246)<br>5003=>Bjærgmose (4244)"
6,8.56476803,55.66314101,"17783 5099 17538 5098 5450","17783=>Torstrup (4243)<br>5099=>Nørholm (831)<br>17538=>Nørholm (831)<br>17538=>Torstrup (4243)<br>5098=>Knofholm (4240)<br>5450=>Sækbæk (4242)"
2,9.55584445,55.75117948,17775,"17775=>Hornstrup (519)<br>17775=>Bredballe (4605)"
3,9.75289773,56.93998814,"17754 17443 17587","17754=>Hornum Kjær (2678)<br>17443=>Øster-Hornum (2688)<br>17587=>Øster-Hornum (2688)"
1,9.86197942,55.85797729,17720,"17720=>Horsens (525)"
15,8.71941953,55.436327,"5478 17563 17564 17565 5170 5171 5172 5173 5174 5270 5487","5478=>Hunderup (547)<br>17563=>Hunderup (547)<br>17563=>Kjærgård (625)<br>17564=>Hunderup (547)<br>17564=>Kjærgård (625)<br>17565=>Hunderup (547)<br>17565=>Kjærgård (625)<br>5170=>Kjærgård (625)<br>5171=>Kjærgård (625)<br>5172=>Kjærgård (625)<br>5173=>Kjærgård (625)<br>5174=>Kjærgård (625)<br>5270=>Kjærgård (625)<br>5487=>Kjærgård (625)<br>5487=>Herredsbjærg (4348)"
7,9.24934405,55.69568351,"17563 5278 17687 17636 17659 17660","17563=>Bindeballe (3877)<br>5278=>Randbøl (3878)<br>17687=>Bindeballe (3877)<br>17687=>Randbøl (3878)<br>17636=>Randbøl (3878)<br>17659=>Randbøl (3878)<br>17660=>Randbøl (3878)"
2,10.18655208,56.57922546,"5090 5091","5090=>Hundstrup (550)<br>5091=>Hundstrup (550)"
2,10.17376224,56.5442071,"5090 5091","5090=>Gjesinggård (3292)<br>5091=>Gjesinggård (3292)"
2,8.97932374,55.35278211,"17486 17681","17486=>Hygum (565)<br>17681=>Hygum (565)"
3,9.71411564,57.31273827,"5140 5414 17669","5140=>Ingstrup (576)<br>5414=>Ingstrup (576)<br>17669=>Ingstrup (576)"
2,9.970865,56.094473,"17685 17686","17685=>Jegsen (584)<br>17686=>Jegsen (584)"
4,9.99651253,56.09972201,"17685 17686 17504 17696","17685=>Adslev (3581)<br>17686=>Adslev (3581)<br>17504=>Adslev (3581)<br>17696=>Adslev (3581)"
2,9.58826623,55.84747798,"5298 5465","5298=>Kalvhave (593)<br>5465=>Kalvhave (593)"
1,9.17347087,56.31082534,17612,"17612=>Karup (601)"
1,10.301185,56.269346,17654,"17654=>Kirkeholt (617)"
1,10.30400662,56.26357453,17654,"17654=>Skjødstrup (1063)"
1,9.97523647,55.48540293,5262,"5262=>Kjærgård (621)"
1,8.21743464,55.73561262,5467,"5467=>Kjærgård (624)"
3,8.85177166,56.57478117,"5097 5195 5118","5097=>Kjærgårdsholm (627)<br>5195=>Kjærgårdsholm (627)<br>5118=>Vellumgård (2975)"
1,10.16468114,56.36638954,5233,"5233=>Klavsholm (641)"
1,10.21821006,56.38544454,5233,"5233=>Mygind (3386)"
2,9.32137834,55.77096642,5389,"5389=>Klavsholm (642)<br>5389=>Klavsholm skov (3859)"
17,9.3617377,56.71405477,"5165 5166 5167 5168 5265 5269 5332 5333 5495","5165=>Kokholm (651)<br>5165=>Bunderup (3023)<br>5165=>Lerkenfeldt (3025)<br>5165=>Svingelbjærg (3028)<br>5166=>Kokholm (651)<br>5166=>Bunderup (3023)<br>5167=>Kokholm (651)<br>5167=>Bunderup (3023)<br>5167=>Lerkenfeldt (3025)<br>5168=>Kokholm (651)<br>5168=>Bunderup (3023)<br>5168=>Lerkenfeldt (3025)<br>5265=>Lerkenfeldt (3025)<br>5269=>Vester-Bølle (3029)<br>5332=>Vester-Bølle (3029)<br>5333=>Vester-Bølle (3029)<br>5495=>Vester-Bølle (3029)"
1,9.49149073,55.49190407,17522,"17522=>Kolding (656)"
1,9.73717456,55.50364711,17522,"17522=>Hindsgavl (4587)"
8,9.40914342,56.19449478,"5130 5287 5393 17759 5105 17462 5273","5130=>Kragelund (666)<br>5287=>Kragelund (666)<br>5393=>Kragelund (666)<br>17759=>Kragelund (666)<br>5105=>Hjøllund (3214)<br>5105=>Refshale (4631)<br>17462=>Kragelund Dam (3215)<br>5273=>Refshale (4631)"
1,9.64459232,55.79600588,5428,"5428=>Kragelund (667)"
3,8.89755494,55.97740889,"5101 17462 17679","5101=>Kragelund (668)<br>17462=>Skarrild (4092)<br>17679=>Skarrild (4092)"
1,8.86226781,56.65591926,5143,"5143=>Krejbjærg (673)"
1,10.72463304,55.19528098,17548,"17548=>Langå (680)"
1,9.39024935,56.57867744,5423,"5423=>Låstrup (692)"
2,9.30272533,56.56686453,"5423 5274","5423=>Lynderupgård (3069)<br>5274=>Lynderupgård (3069)"
1,10.2483525,56.38890938,5469,"5469=>Lime (700)"
1,10.01075277,56.88382407,5355,"5355=>Lindenborg (708)"
2,8.4446389,55.90317791,"5188 5452","5188=>Lønborggård (719)<br>5452=>Lønborg (4188)"
1,8.36878247,55.75899223,5179,"5179=>Lunde (728)"
1,9.73346415,56.33971874,5179,"5179=>Åbøl (4419)"
3,8.65170959,56.74031723,"17524 5044 5201","17524=>Lundsgårde (741)<br>5044=>Kvalsted (2568)<br>5201=>Sindbjærggård (2572)"
1,11.34728641,55.28568455,5358,"5358=>Lyngbygård (752)"
3,9.9843203,56.65025328,"5444 5448 5434","5444=>Mariager (768)<br>5448=>Mariager (768)<br>5434=>Brødløs mølle (3243)"
2,8.55619511,55.50608602,"5448 5103","5448=>Saderup (4271)<br>5103=>Oksvang (4270)"
1,9.56520603,55.94774472,17592,"17592=>Matrup (777)"
1,10.21339439,56.3006803,5314,"5314=>Mejlby (780)"
2,9.06787969,56.69700668,"17757 17590","17757=>Mogenstrup (786)<br>17590=>Grinderslev (2916)"
3,9.09668456,56.76087207,"17757 5087 5404","17757=>Jungetgård (2934)<br>5087=>Brokholm slot (2929)<br>5404=>Junget (2933)"
4,9.4181296,56.80367274,"5182 5183","5182=>Mølgård (787)<br>5182=>Havbrogård (2794)<br>5183=>Mølgård (787)<br>5183=>Tåsgårde (2795)"
1,10.12774216,56.3615738,5365,"5365=>Nielstrup (817)"
13,10.55290497,55.96474501,"4984 5301 5302 5303 5315 5316 5317 5318 5319 5373 5379 5419 5378","4984=>Nordby (825)<br>5301=>Nordby (825)<br>5302=>Nordby (825)<br>5303=>Nordby (825)<br>5315=>Nordby (825)<br>5316=>Nordby (825)<br>5317=>Nordby (825)<br>5318=>Nordby (825)<br>5319=>Nordby (825)<br>5373=>Nordby (825)<br>5379=>Nordby (825)<br>5419=>Nordby (825)<br>5378=>Armhoved (1586)"
7,10.67239199,55.53421698,"17608 17609 17472 5180","17608=>Nordskov (827)<br>17608=>Stubberup (1141)<br>17609=>Nordskov (827)<br>17609=>Stubberup (1141)<br>17472=>Stubberup (1141)<br>17472=>Grønlund (4593)<br>5180=>Fyenshoved (1945)"
1,9.73562834,57.03783474,4991,"4991=>Nørholm (829)"
4,9.75047632,56.7553991,"5152 5154 5036 17430","5152=>Nørlund (832)<br>5154=>Nørlund (832)<br>5036=>Gud sø (2784)<br>17430=>Ravnkilde (2786)"
1,10.39005511,55.39681993,5436,"5436=>Odense (850)"
1,10.67262789,55.25822606,17496,"17496=>Ørbæk (857)"
1,10.33760845,56.50255801,17613,"17613=>Ørsted (871)"
1,8.33208508,56.81422905,5304,"5304=>Ørum (873)"
2,8.3638188,56.85163333,"5304 5350","5304=>Hvidbjærg vesten å (2510)<br>5350=>Plovstrup (913)"
1,8.29581513,56.81791974,5304,"5304=>Lodbjærg ell. Tølbøl kirke (2514)"
3,10.64140852,55.86326329,"5400 5366 5367","5400=>Østerby (881)<br>5366=>Besser (1583)<br>5367=>Besser (1583)"
1,8.83559808,56.59611606,5280,"5280=>Østergård (886)"
2,8.49162946,55.80164939,"5196 5452","5196=>Østergård (888)<br>5452=>Lyne (4193)"
1,10.46469335,55.28219118,5146,"5146=>Pederstrup (909)"
9,10.30975213,57.61903603,"17439 17440 17629 17665 17691 17700 5008 5009 4986","17439=>Råbjærg (916)<br>17440=>Råbjærg (916)<br>17629=>Råbjærg (916)<br>17665=>Råbjærg (916)<br>17691=>Råbjærg (916)<br>17700=>Råbjærg (916)<br>5008=>Gårbo (2188)<br>5009=>Gårbo (2188)<br>4986=>Gårbo sø (2189)"
2,10.56422311,57.72685939,"17665 5359","17665=>Kandestederne (4682)<br>5359=>Skagen (2184)"
1,9.93224147,57.40437035,5297,"5297=>Rakkeby (920)"
2,10.06299816,56.8684854,"5190 5462","5190=>Randrup (925)<br>5462=>Svanfolk (2730)"
5,9.49686839,56.41942697,"5356 5214 5251 5279 5425","5356=>Randrup (926)<br>5214=>Odsgård (3137)<br>5251=>Odsgård (3137)<br>5279=>Odsgård (3137)<br>5425=>Odsgård (3137)"
6,9.92856546,55.77075429,"5238 17453 17454 17455 17456 5025","5238=>Rårup (928)<br>17453=>Rårup (928)<br>17454=>Rårup (928)<br>17455=>Rårup (928)<br>17456=>Rårup (928)<br>5025=>Høllet sø (3777)"
3,8.77858359,55.33618399,"5438 5490 5491","5438=>Ribe (945)<br>5490=>Ribe (945)<br>5491=>Ribe (945)"
3,9.27580365,56.53917503,"5416 5417 5493","5416=>Ris mølle (953)<br>5417=>Ris mølle (953)<br>5493=>Jordbro mølle (2996)"
2,9.9260865,56.73172154,"17588 17727","17588=>Rostrup (973)<br>17727=>Rostrup (973)"
1,9.85296203,56.6747888,17727,"17727=>Valsgård (2766)"
1,10.221748,55.991901,17480,"17480=>Rude (976)"
4,9.7076326,56.07812985,"5439 5440 5139","5439=>Ry (979)<br>5439=>Emborg (3644)<br>5440=>Ry (979)<br>5139=>Skovsbjærg (3652)"
1,10.478597,57.333876,5263,"5263=>Sæbygård (992)"
1,10.17396194,55.51225264,17628,"17628=>Særslev (996)"
2,10.63684485,56.34493833,"5209 17633","5209=>Skårupgård (1041)<br>17633=>Nødager (3441)"
3,8.76125305,55.1559085,"17567 17568","17567=>Skjærbæk (1053)<br>17568=>Skjærbæk (1053)<br>17568=>Skjærbækgård (1054)"
2,8.73018489,55.19464609,"17567 17623","17567=>Brøns (4445)<br>17623=>Brøns (4445)"
2,9.75427647,56.4540764,"5229 17569","5229=>Skjern (1060)<br>17569=>Skjern (1060)"
1,9.92980991,56.30081683,17553,"17553=>Skjød (1062)"
3,10.50131206,56.47736864,"5110 5111 4997","5110=>Skovgård (1073)<br>5111=>Skovgård (1073)<br>4997=>Tustrup (1255)"
5,8.63217387,55.46388899,"5309 5308","5309=>Sneumgård (1089)<br>5309=>Krogsgård (4265)<br>5309=>Sneum (4266)<br>5308=>Krogsgård (4265)<br>5308=>Sneum (4266)"
1,8.18259745,56.1297722,5210,"5210=>Søgård (1096)"
1,10.13675969,56.8107845,5256,"5256=>Solbjærg (1098)"
2,10.11611215,56.82866129,5256,"5256=>Bælum (2727)<br>5256=>Lille-Brøndum (2728)"
2,10.19194129,56.76065659,5256,"5256=>Skelum (2753)<br>5256=>Veddum (2754)"
1,9.81387091,56.77518886,5093,"5093=>Hofmandsdam (2774)"
1,8.81679207,55.06013901,5112,"5112=>Svendstrup (1155)"
6,9.84559872,56.01132805,"5370 5371 5397 5398 5410 5411","5370=>Tåning (1164)<br>5371=>Tåning (1164)<br>5397=>Tåning (1164)<br>5398=>Tåning (1164)<br>5410=>Snedtrup præstegård (3702)<br>5411=>Snedtrup præstegård (3702)"
3,10.11557169,57.38471485,"17517 5060","17517=>Tårs (1166)<br>17517=>Tidemandsholm (2311)<br>5060=>Sørup sø (2308)"
4,10.29659671,57.40928505,"17517 5453 5157","17517=>Lendum (2227)<br>17517=>Lengsholm (4676)<br>5453=>Lendum (2227)<br>5157=>Lengsholm (4676)"
1,10.03168556,56.77982117,5445,"5445=>Tisted (1192)"
2,9.90701839,57.30294273,"5007 5325","5007=>Tolstrup (1200)<br>5325=>Tolstrup (1200)"
1,9.6615436,55.98937886,17556,"17556=>Tønning (1208)"
3,10.32289645,57.34965454,"5040 5059 5109","5040=>Torslev (1222)<br>5059=>Torslev (1222)<br>5109=>Skavange (2277)"
1,10.16486773,57.26998552,17611,"17611=>Hellum (439)"
1,10.13374931,56.09126859,17674,"17674=>Tranbjærg (1243)"
2,8.5822951,55.46497798,"5310 5145","5310=>Trasborg (1245)<br>5145=>Tjæreborg (4269)"
1,8.6812699,57.05416077,5327,"5327=>Tved (1257)"
1,9.78428526,56.63226828,5276,"5276=>Tvingstrup (1260)"
1,10.00194886,55.89344365,5212,"5212=>Tyrrestrup (1265)"
4,9.75157225,55.96646262,"5243 17578 17706","5243=>Urup (1282)<br>17578=>Urup (1282)<br>17578=>Østbirk (3685)<br>17706=>Østbirk (3685)"
2,8.48820299,56.97051219,"17549 17683","17549=>Vang (1286)<br>17683=>Vang (1286)"
3,8.72061708,56.74677042,"4987 5127","4987=>Vejerslev (1296)<br>5127=>Vejerslev (1296)<br>5127=>Bladborg (2573)"
1,8.61683725,56.78871906,5127,"5127=>Votborg (2562)"
1,8.81731642,56.84745136,5127,"5127=>Alsted vold (2600)"
5,8.67061542,56.81603075,"5127 17488 17489 5100 17490","5127=>Kobbervold (4654)<br>17488=>Kobbervold (4654)<br>17489=>Kobbervold (4654)<br>5100=>Kobbervold (4654)<br>17490=>Kobbervold (4654)"
4,9.5521637,55.71165991,"17656 17721 17722 17723","17656=>Vejle (1300)<br>17721=>Vejle (1300)<br>17722=>Vejle (1300)<br>17723=>Vejle (1300)"
1,9.54037982,56.45510207,5294,"5294=>Vejrum (1301)"
1,9.53091668,55.4024646,17601,"17601=>Vejstrup (1304)"
4,8.31251275,56.05118957,"17534 17535 17536 17581","17534=>Velling (1305)<br>17535=>Velling (1305)<br>17536=>Velling (1305)<br>17581=>Velling (1305)"
1,10.68597858,55.4965815,17471,"17471=>Viby (1307)"
2,9.57397269,55.67828641,"17637 17711","17637=>Vinding (1317)<br>17711=>Vinding (1317)"
1,8.90403439,56.69059165,5477,"5477=>Vium (1323)"
1,11.99387683,55.83905468,4995,"4995=>Skovsøen (1386)"
1,12.01929904,55.7797722,5085,"5085=>Halsborg slot (1388)"
1,11.76838014,55.49068151,4998,"4998=>Ørevadsgård (1619)"
1,11.83510257,55.52285147,4994,"4994=>Vievad (1624)"
1,11.28063128,55.40304516,5239,"5239=>Trilleborg (1635)"
1,11.74732363,55.24435851,17428,"17428=>Herlufsholm (1682)"
1,12.05240733,55.11870202,5247,"5247=>Præstø (1684)"
1,11.76354234,55.22707239,5247,"5247=>Næstved (1685)"
1,12.11865563,55.08975669,5096,"5096=>Jungshoved (1741)"
1,12.03507793,55.08196045,5104,"5104=>Oremandsgård (1743)"
1,12.28696514,54.9899554,5249,"5249=>Stege (1760)"
1,14.82665637,55.10731833,5027,"5027=>Almindingen (1781)"
1,11.1239032,54.89912876,17572,"17572=>København (1812)"
1,11.22367906,54.8490156,17468,"17468=>Halsted Kloster (1816)"
1,11.33197419,54.89991633,17645,"17645=>Birket, Rosenlund Mark (1818)"
1,11.78666929,54.75407107,17645,"17645=>Toreby (1836)"
1,11.49583027,54.66855918,17494,"17494=>Errindlev (1820)"
2,11.77232596,54.90879,"17690 17717","17690=>Kippinge (1847)<br>17717=>Kippinge (1847)"
1,11.95792563,54.7421868,17646,"17646=>Idestrup (1850)"
1,11.94052891,54.60199482,17495,"17495=>Gjedesby (1861)"
1,11.99352427,54.80274434,17582,"17582=>Horsbjærglund (1865)"
1,10.25460703,55.39638034,17582,"17582=>Ubberud (1886)"
1,12.08563216,54.84845785,17590,"17590=>Åstrup (103)"
1,10.36139511,55.33936662,17470,"17470=>Stenløse (1891)"
1,10.60511284,55.34465585,5115,"5115=>Tvevad (1912)"
4,10.64791633,55.49989519,"17519 17520 17543 17789","17519=>Mesinge (1938)<br>17520=>Mesinge (1938)<br>17543=>Mesinge (1938)<br>17789=>Mettes Bjærg, Fru (1939)"
1,9.11742998,55.5219207,17789,"17789=>Læborg (4339)"
1,10.37735441,55.45749823,17698,"17698=>Lumby (1952)"
1,10.15997114,55.47376268,5052,"5052=>Vigerslev (1971)"
6,10.25423316,55.48575526,"17575 17580 17583","17575=>Søndersø (1976)<br>17575=>Dallund (4583)<br>17580=>Søndersø (1976)<br>17580=>Dallund (4583)<br>17583=>Søndersø (1976)<br>17583=>Dallund (4583)"
1,10.0272562,55.41308723,17527,"17527=>Rosborg (1988)"
3,9.19668307,56.44299631,"17527 5364 5374","17527=>Mønsted (3008)<br>5364=>Mønsted (3008)<br>5374=>Rosborggård (3011)"
2,9.80011611,55.46035275,5082,"5082=>Gamborg slot (1996)<br>5082=>Svinø (1997)"
2,9.82743558,55.4229237,"5442 17662","5442=>Føns (1998)<br>17662=>Føns (1998)"
1,9.9752457,55.28372306,4985,"4985=>Gamtofte (2009)"
1,10.338306,55.592897,17648,"17648=>Agernæs (2019)"
11,10.00026428,55.15714245,"17545 17546 17547 17663 17664 17699 17742","17545=>Helnæs (2022)<br>17545=>Helnæsgård (2023)<br>17546=>Helnæs (2022)<br>17546=>Helnæsgård (2023)<br>17547=>Helnæs (2022)<br>17547=>Helnæsgård (2023)<br>17663=>Helnæs (2022)<br>17664=>Helnæs (2022)<br>17664=>Helnæsgård (2023)<br>17699=>Helnæs (2022)<br>17742=>Helnæs (2022)"
5,10.48172023,55.2383892,"5010 5011 5012 5013 17437","5010=>Glue mose (2095)<br>5011=>Glue mose (2095)<br>5012=>Glue mose (2095)<br>5013=>Glue mose (2095)<br>17437=>Ringe (2098)"
2,10.70372579,55.36192302,"5021 4988","5021=>Bundløse sø (2127)<br>4988=>Korpendrup (2128)"
2,10.80042722,54.95712104,"5028 17438","5028=>Blegholm (2156)<br>17438=>Blegholm (2156)"
2,10.1928376,57.58773669,"17630 17666","17630=>Tværsted (2195)<br>17666=>Tværsted (2195)"
2,10.4799494,57.47709661,"5485 5384","5485=>Elling (2205)<br>5384=>Slettemose (2210)"
2,10.2503403,57.4626313,"5435 17631","5435=>Høgholt mølle (2220)<br>17631=>Hørmested (2221)"
2,10.13688564,57.42516618,"5187 5386","5187=>Linderumsgård (2241)<br>5386=>Ugilt (2242)"
1,10.09111504,57.54013728,5175,"5175=>Odden (2251)"
2,10.02870892,57.55574435,"5175 5234","5175=>Asdal (2254)<br>5234=>Asdal (2254)"
1,10.43807204,57.31823044,5376,"5376=>Øksenvad (2272)"
2,10.42337803,57.23361339,"5237 5283","5237=>Store-Rugsted (2281)<br>5283=>Vorså (2282)"
5,10.35104153,57.24032431,"5271 5422 5160 5161 5272","5271=>Jegskov (2284)<br>5422=>Jegskov (2284)<br>5160=>Voergård (2286)<br>5161=>Voergård (2286)<br>5272=>Voergård (2286)"
1,8.86845772,56.45666669,5272,"5272=>Sevel (4046)"
2,10.00262436,57.36224501,"5258 5259","5258=>Vrejlev Kloster (2315)<br>5259=>Vrejlev Kloster (2315)"
3,9.83422482,57.36607902,"5235 5236 5255","5235=>Børglum kloster (2320)<br>5236=>Børglum kloster (2320)<br>5255=>Børglum kloster (2320)"
1,9.86429637,57.32061766,5320,"5320=>Stenum (2335)"
1,10.09226362,57.2849937,5473,"5473=>Jerslev broer (2343)"
4,9.99781555,57.24808351,"5473 5488 5476","5473=>Hvilshøj (2345)<br>5473=>Øster-Brønderslev (2348)<br>5488=>Hvilshøjgård (2346)<br>5476=>Øster-Brønderslev (2348)"
1,9.66958207,57.21084237,5430,"5430=>Ulvholm (2381)"
2,9.42020192,57.12592682,"5046 5406","5046=>Lerup sø (2390)<br>5406=>Lerupgård (2391)"
1,9.46249934,57.13223706,5340,"5340=>Tranum (2394)"
2,9.50899595,57.09430845,"5022 5023","5022=>Nørre-Økse sø (2401)<br>5023=>Nørre-Økse sø (2401)"
1,9.16677663,57.09680291,5395,"5395=>Klim (2436)"
1,9.12561066,57.10536712,5047,"5047=>Røvild (2438)"
2,8.61685218,56.99574905,"5072 5362","5072=>Vig (2464)<br>5362=>Vig (2464)"
1,8.81166219,57.05900617,5497,"5497=>Oddersbøgård (2471)"
1,8.54350526,56.86406245,17475,"17475=>Øland (2496)"
1,8.48840034,56.84682453,5177,"5177=>Irup (2500)"
1,8.4169333,56.78586967,5455,"5455=>Grurup (2509)"
2,8.31670931,56.75720487,"17632 5153","17632=>Vestervig (2520)<br>5153=>Vestervig kloster (2521)"
3,8.30700823,56.19509868,"5153 5150 5151","5153=>Timgård (4137)<br>5150=>Timgård (4137)<br>5151=>Timgård (4137)"
1,8.48166,56.706484,5132,"5132=>Boddum (2526)"
1,8.40543892,56.71055607,5474,"5474=>Sindrup (2529)"
1,8.44876034,56.6647117,17741,"17741=>Tybjærg (2541)"
1,8.61827084,56.64422515,5481,"5481=>Jegind (2549)"
1,9.64459583,56.98237689,17429,"17429=>Nibe (2610)"
1,9.85763259,57.11839779,5159,"5159=>Rødslet (2620)"
1,10.12013506,57.06520776,5203,"5203=>St.-Havkrog (2645)"
1,10.2569948,57.07626219,5383,"5383=>Ulsted (2653)"
3,10.30657345,56.99519175,"5293 5489 5197","5293=>Hals (2656)<br>5489=>Hals (2656)<br>5197=>Hals ladegård (2657)"
1,10.21956972,56.97030321,17610,"17610=>Mov (2675)"
1,9.86580873,56.93137827,17726,"17726=>Ellidshøj (2685)"
1,9.85612331,56.85858438,5242,"5242=>Buderupholm (2690)"
2,9.61424246,56.94766364,17525,"17525=>Lundbæk (2710)<br>17525=>Bislev (2714)"
2,10.11185967,56.88367465,5189,"5189=>Kongstedlund (2722)<br>5189=>Sønder-Kongerslev (2724)"
2,9.95432161,56.89635166,"5390 5268","5390=>Gjerding (2737)<br>5268=>Teglgården (2738)"
1,9.82190191,56.72635189,5092,"5092=>Hvarre sø (2778)"
1,9.72173689,56.6195027,5062,"5062=>Øls skjæppe (2780)"
1,9.65004051,56.76576478,5396,"5396=>Smorup præstegård (2783)"
3,9.59645434,56.86311316,"17449 17450 5006","17449=>Skivum (2788)<br>17450=>Skivum (2788)<br>5006=>Skjelsø (2789)"
1,9.59358865,56.75149212,5286,"5286=>Kongens-Tisted (2811)"
1,9.2363639,56.69459991,17777,"17777=>Lovringvejene (2824)"
1,8.25410165,56.08699748,17777,"17777=>Ringkøbing amt (3959)"
5,9.21998851,56.79001184,"5083 5336 5337 5206 5391","5083=>Gunderupgård (2834)<br>5336=>Ildrup sige (2835)<br>5337=>Ildrup sige (2835)<br>5206=>Strandbygårde (2839)<br>5391=>Myrhøj (2840)"
1,9.23898132,56.9372919,5331,"5331=>Fald hede (2850)"
4,9.4738233,56.90102008,"5048 5049 5050 17451","5048=>Navn sø (2868)<br>5049=>Navn sø (2868)<br>5050=>Navn sø (2868)<br>17451=>Gunderstedgård (2869)"
3,9.37836463,56.45780394,"5029 17718 17719","5029=>Blærup sø (2884)<br>17718=>Viborg (2887)<br>17719=>Viborg (2887)"
2,9.03275937,56.56919621,"17756 5392","17756=>Skive (2892)<br>5392=>Svansø (2894)"
1,9.01342881,56.66903046,5282,"5282=>Ilbjærg (2909)"
3,9.01266703,56.63561907,"5335 17652 17743","5335=>Båstrup (2910)<br>17652=>Lyby (2911)<br>17743=>Lyby (2911)"
1,9.08061225,56.64924931,5387,"5387=>Grønning (2922)"
1,9.054866,56.745348,5275,"5275=>Lille-Torum (2938)"
4,8.810434,56.6441,"5147 5148 5149 5155","5147=>Spøtrup (2968)<br>5148=>Spøtrup (2968)<br>5149=>Spøtrup (2968)<br>5155=>Spøtrup (2968)"
1,9.14028051,56.62178612,17693,"17693=>Lundø (2994)"
2,9.63609942,56.59030387,"5219 5220","5219=>Brattingsborg slot (3049)<br>5220=>Brattingsborg slot (3049)"
1,9.91748665,56.50453131,5094,"5094=>Hvolrisgård (3055)"
2,9.43281814,56.44333188,"5057 5058","5057=>Stof sø (3072)<br>5058=>Stof sø (3072)"
3,9.34733479,56.52834942,"5385 5125 5458","5385=>Navntoft (3084)<br>5125=>Vorde (3085)<br>5458=>Vorde (3085)"
2,9.7035367,56.49249568,"5460 5492","5460=>Kvorning (3116)<br>5492=>Kvorning (3116)"
1,9.82062771,56.53635848,5218,"5218=>Nørre-Beg (3121)"
1,9.90314564,56.48560693,5240,"5240=>Fussingø (3127)"
1,9.91812401,56.45963011,5026,"5026=>Klørup dam (3133)"
1,9.67798469,56.42303473,5424,"5424=>Rejstrup mølle (3154)"
1,9.333894,56.286321,17703,"17703=>Torning (3189)"
2,9.66364638,56.22223224,17528,"17528=>Allinggård (3198)<br>17528=>Svostrup (3201)"
2,9.52005422,56.21760026,"5368 17745","5368=>Sejling (3208)<br>17745=>Sejling (3208)"
1,9.46495051,56.20785556,5070,"5070=>Biskov (3209)"
1,9.47110478,56.1483529,17760,"17760=>Funder (3219)"
2,9.35147784,56.16917342,"5290 17761","5290=>Engesvang (3224)<br>17761=>Engesvang (3224)"
1,9.8227168,56.36630128,5102,"5102=>Mandrup (3232)"
2,9.85316849,56.58423344,"5084 5426","5084=>Gundestrup (3276)<br>5426=>Tystrup by og mølle (3280)"
1,9.90038732,56.59671241,5338,"5338=>Vester-Tørslev (3281)"
1,9.89738756,56.51409406,17501,"17501=>Kovsted (3285)"
1,10.03578012,56.53842593,4989,"4989=>Jennum (3287)"
1,10.02530132,56.41896103,5346,"5346=>Amstrup (3307)"
1,9.95341354,56.40107065,5113,"5113=>Torupgård (3317)"
1,10.18870215,56.33456056,5432,"5432=>Villendrup (3338)"
1,10.05761217,56.44301184,17781,"17781=>Kroergården (3351)"
1,10.28306119,56.4446316,5241,"5241=>Gl.-Estrup (3362)"
5,10.35100168,56.36874798,"5066 5067 5068 5163 5178","5066=>Bendstrup (3381)<br>5067=>Bendstrup (3381)<br>5068=>Bendstrup (3381)<br>5163=>Skaføgård (3383)<br>5178=>Skaføgård (3383)"
6,10.48550918,56.29043477,"5163 5224 5225 5226 5227 5228","5163=>Kalvø (3463)<br>5224=>Kalvø (3463)<br>5225=>Kalvø (3463)<br>5226=>Kalvø (3463)<br>5227=>Kalvø (3463)<br>5228=>Kalvø (3463)"
5,10.31667047,56.31261766,"5163 5227 5228 5158 17673","5163=>Rosenholm (3468)<br>5227=>Rosenholm (3468)<br>5228=>Rosenholm (3468)<br>5158=>Rosenholm (3468)<br>17673=>Hornslet (3470)"
1,10.72367324,56.47687714,5345,"5345=>Glæsborg (3409)"
3,10.81506089,56.36394809,"5200 5305 5306","5200=>Homå hede (3428)<br>5305=>Homå (3429)<br>5306=>Homå (3429)"
3,10.37665808,56.33447364,"5041 5042 5043","5041=>Kulsø (3466)<br>5042=>Kulsø (3466)<br>5043=>Kulsø (3466)"
1,10.21049352,56.26873003,17762,"17762=>Todbjærg (3484)"
2,9.97718946,56.22214714,"17502 17598","17502=>Lading (3513)<br>17598=>Lading (3513)"
1,10.02826169,56.21237946,17598,"17598=>Sabro (3516)"
1,9.91034966,56.15511621,5342,"5342=>Sønder-Galten (3538)"
1,10.16351111,56.06922865,5357,"5357=>Vilhelmsborg (3547)"
4,10.15055444,55.97882035,"5357 17554","5357=>Rathlousdal (3559)<br>5357=>Rodstenseje (4623)<br>17554=>Odder (3558)<br>17554=>Rodstenseje (4623)"
1,9.8356371,56.07811135,5468,"5468=>Nygårds skov (3593)"
1,9.88182547,56.11098135,5380,"5380=>Nørre-Vissing (3597)"
1,9.85556339,56.25716427,17591,"17591=>Hammel (3624)"
3,9.77414217,56.10741748,"5341 5429 5138","5341=>Jævngryde (3640)<br>5429=>Jævngryde (3640)<br>5138=>Søndholt bjærge (3643)"
1,9.8614429,55.97300374,5449,"5449=>Elling (3690)"
1,9.86775161,55.92840987,5449,"5449=>Gjedved (3717)"
1,9.937012,55.93928701,5004,"5004=>Tvingstrupgårde (3716)"
4,9.737277,55.892376,"5080 17481 5475 5472","5080=>Drostholm (3734)<br>17481=>Tamdrup (3738)<br>5475=>Vinten (3739)<br>5472=>Vintengård (3740)"
1,9.78571328,55.72107171,17518,"17518=>Rosenvold (3766)"
1,9.65824266,55.74095127,17531,"17531=>Tirsbæk (3797)"
3,9.34814612,55.81619745,"17708 17732 17746","17708=>Givskud (3815)<br>17732=>Givskud (3815)<br>17746=>Givskud (3815)"
1,9.373212,55.885195,17557,"17557=>Øster-Nykirke (3821)"
1,9.17733486,55.80010134,5394,"5394=>Ringive (3823)"
3,9.23259893,55.8468133,"17676 17709 17776","17676=>Give (3829)<br>17709=>Give (3829)<br>17776=>Give (3829)"
2,9.25779543,55.90628978,"17776 17733","17776=>Tyregod (3835)<br>17733=>Tyregod (3835)"
1,9.348564,55.931241,17571,"17571=>Vester (3836)"
2,9.12705174,55.9459115,"17615 17710","17615=>Brande (3837)<br>17710=>Brande (3837)"
1,8.89396153,55.83813703,17532,"17532=>Sønder-Omme (3845)"
2,9.38319082,55.70244629,"5278 17599","5278=>Bræsten (3852)<br>17599=>Tyrskind (3855)"
9,9.30436222,55.71874186,"5156 5199 5250 17533 17579 17600","5156=>Engelsholm (3868)<br>5199=>Engelsholm (3868)<br>5250=>Engelsholm (3868)<br>17533=>Engelsholm (3868)<br>17533=>Nørup (3871)<br>17579=>Engelsholm (3868)<br>17579=>Nørup (3871)<br>17600=>Engelsholm (3868)<br>17600=>Nørup (3871)"
4,9.60383483,55.63991829,"17558 17559 17678 17436","17558=>Skjærup (3926)<br>17559=>Skjærup (3926)<br>17678=>Skjærup (3926)<br>17436=>Skjærup (3926)"
2,9.65802838,55.60220511,"17617 17618","17617=>Pjedsted (3929)<br>17618=>Pjedsted (3929)"
1,9.53782541,55.52738298,17619,"17619=>Eltang (3936)"
2,9.5765261,55.38319879,"17458 17638","17458=>Hejls (3952)<br>17638=>Hejls (3952)"
3,9.38258003,55.40809558,"17593 17594 17595","17593=>Ødis (3957)<br>17594=>Ødis (3957)<br>17595=>Ødis (3957)"
1,8.38210526,56.52741547,5289,"5289=>Fabjærg (3980)"
1,8.69268956,56.36744648,5399,"5399=>Mejrup (4014)"
1,8.75039165,56.40578678,5215,"5215=>Store-Hessel (4016)"
1,8.64201964,56.43840428,5312,"5312=>Hjerm (4018)"
1,9.040718,56.312681,17484,"17484=>Grove (4057)"
1,8.78193285,55.93835342,17782,"17782=>Sønder-Felding (4090)"
2,8.18988814,56.30624905,"5121 5119","5121=>Kabel kirke (4101)<br>5119=>Voldegård (4106)"
14,8.33953781,56.29960833,"5122 5126 5322 5363 5405 5457 5176 5252 5253 5254 5267 5288 5326","5122=>Nørre-Vosborg (4111)<br>5122=>Sønder-Vosborg (4113)<br>5126=>Nørre-Vosborg (4111)<br>5322=>Skjærum kirke og bro (4112)<br>5363=>Ulfborg (4114)<br>5405=>Ulfborg (4114)<br>5457=>Ulfborg (4114)<br>5176=>Vosborg (4117)<br>5252=>Vosborg (4117)<br>5253=>Vosborg (4117)<br>5254=>Vosborg (4117)<br>5267=>Vosborg (4117)<br>5288=>Lystlund (4634)<br>5326=>Lystlund (4634)"
1,8.56522933,56.25754291,17714,"17714=>Vind (4123)"
1,8.2861537,56.1439275,5266,"5266=>Volbjærg (4132)"
6,8.702898,56.08892904,"5053 5054 5055 5056 17463 17602","5053=>Sol sø (4152)<br>5054=>Sol sø (4152)<br>5055=>Sol sø (4152)<br>5056=>Sol sø (4152)<br>17463=>Vorgod (4153)<br>17602=>Vorgod (4153)"
1,8.71640042,56.03603078,5000,"5000=>Troldhede (4156)"
3,8.37239889,55.96320278,"5005 17562 17680","5005=>Bavsø (4165)<br>17562=>Stavning (4166)<br>17680=>Stavning (4166)"
1,8.37206538,55.85016623,5372,"5372=>Hemmet (4181)"
1,8.40857756,55.82287889,5452,"5452=>Sønder-Vium (4185)"
2,8.61786553,55.80774922,"5452 17614","5452=>Ølgod (4255)<br>17614=>Ølholm (4256)"
1,8.60045399,55.87516419,5204,"5204=>Bindesbøl (4199)"
2,8.3699163,55.6223361,"5192 5361","5192=>Elkjær slot (4206)<br>5361=>St.-Hebo (4210)"
2,8.33130981,55.6159675,"5403 5412","5403=>Kjelst (4212)<br>5412=>Kjelst (4212)"
1,8.64862908,55.69758148,5285,"5285=>Hodde (4247)"
1,8.75298581,55.70464667,5045,"5045=>Kvie sø (4258)"
1,8.65413512,55.52789558,5461,"5461=>Grimstrup (4260)"
2,8.40174362,55.53024781,"17657 17658","17657=>Guldager (4275)<br>17658=>Guldager (4275)"
2,8.85730379,55.5490305,"17738 17787","17738=>Grene (4285)<br>17787=>Grene (4285)"
3,9.08327118,55.6296138,"5061 17514 17640","5061=>Vorbasse (4287)<br>17514=>Vorbasse (4287)<br>17640=>Vorbasse (4287)"
2,9.24419327,55.55835913,"5116 5117","5116=>Trælleborg (4291)<br>5117=>Trælleborg (4291)"
1,9.14109107,55.56995085,17786,"17786=>Bække (4293)"
1,9.32170212,55.51180511,5205,"5205=>Rådgård (4300)"
1,9.29280551,55.42672846,5232,"5232=>Vamdrupgård (4312)"
1,9.06844645,55.47082031,5496,"5496=>Malt (4328)"
1,9.14255855,55.47592324,5181,"5181=>Skodborghus (4332)"
1,8.64674475,55.42798863,5300,"5300=>Darum (4342)"
3,8.70681512,55.39688553,"5408 5409 5441","5408=>Vilslev (4346)<br>5409=>Vilslev (4346)<br>5441=>Vilslev (4346)"
4,8.73244274,55.36384026,"17465 4981 5063 5307","17465=>Farup (4354)<br>4981=>Ørn sø (4357)<br>5063=>Ørn sø (4357)<br>5307=>Stormhusene (4358)"
1,8.80276239,55.40369148,5296,"5296=>Hjortlund (4359)"
1,8.68281929,55.29186965,5486,"5486=>Vester-Vedsted (4368)"
1,8.53753796,55.27531182,5292,"5292=>Mandø (4370)"
1,9.56740057,55.32125568,17790,"17790=>Fjelstrup (4382)"
2,9.2939597,55.31614505,"17661 17739","17661=>Sommersted (4391)<br>17739=>Sommersted (4391)"
1,9.17997552,55.2711306,17791,"17791=>Nustrup (4402)"
4,9.050939,55.28936841,"17791 5257 17596 17715","17791=>Gram (4415)<br>5257=>Gram (4415)<br>17596=>Gram (4415)<br>17715=>Gram (4415)"
2,9.14370589,55.30843464,"5141 17566","5141=>Øster-Lindet (4404)<br>17566=>Øster-Lindet (4404)"
4,9.10599432,55.40991494,"5185 5193 5351","5185=>Skrave (4408)<br>5185=>Skravegård (4409)<br>5193=>Skrave (4408)<br>5351=>Skrave (4408)"
1,9.20524537,55.19953449,17487,"17487=>Bevtoft (4420)"
4,8.89942565,55.25952201,"17603 17621 17622 17641","17603=>Spandetgård (4441)<br>17621=>Spandetgård (4441)<br>17622=>Spandetgård (4441)<br>17641=>Spandetgård (4441)"
2,8.78636022,55.0094511,17539,"17539=>Trøjborg (4453)<br>17539=>Visby (4455)"
1,8.65598855,55.02167051,17634,"17634=>Hjerrild (4460)"
1,8.6616859,55.07133637,17625,"17625=>Ballum (4461)"
2,8.86783095,54.97934547,"17488 17489","17488=>Abild (4479)<br>17489=>Abild (4479)"
5,9.35986674,55.11536159,"5065 5291 5502 17491 17604","5065=>Andholm (4499)<br>5291=>Lerskov (4505)<br>5502=>Lerskov (4505)<br>17491=>Øster-Løgum (4508)<br>17604=>Øster-Løgum (4508)"
4,9.46147095,55.09054028,"17682 17697 17794 17795","17682=>Løjt (4511)<br>17697=>Løjt (4511)<br>17794=>Løjt (4511)<br>17795=>Løjt (4511)"
2,9.56918805,55.01426547,"17697 17794","17697=>Varnæs (4524)<br>17794=>Varnæs (4524)"
1,9.72628521,54.91338897,17749,"17749=>Dybbøl (4528)"
1,9.31819277,55.02032089,17740,"17740=>Nybøl (4537)"
1,9.66825625,54.88991599,17492,"17492=>Broager (4538)"
1,9.96126412,55.24200192,17523,"17523=>Frederiksgave (4569)"
2,10.17093158,55.55632354,"5245 17650","5245=>Gyldensten (4595)<br>17650=>Gyldensten (4595)"
1,10.36887143,55.57274748,17521,"17521=>Einsiedelsborg (4596)"
1,9.44872588,55.60181971,5142,"5142=>Fønixborg (4598)"
1,9.58869625,57.06335248,17707,"17707=>Hvolgård (4662)"
